stop_id,stop_code,stop_name,stop_desc,stop_lat,stop_lon,zone_id,stop_url,parent_station,location_type,level_id,wheelchair_boarding
1024,302,Jacint Verdaguer Estació (302),,39.58032,2.660273,12376,https://www.tib.org/web/ctm/parades/-/parada/302,,,,
1025,303,Son Costa - Son Fortesa Estació (303),,39.584072,2.665686,12376,https://www.tib.org/web/ctm/parades/-/parada/303,,,,
1026,304,Son Fuster Vell Estació (304),,39.595455,2.671543,12384,https://www.tib.org/web/ctm/parades/-/parada/304,,,,
1027,305,Son Castelló Estació (305),,39.602608,2.672195,12384,https://www.tib.org/web/ctm/parades/-/parada/305,,,,
1028,306,Gran Via Asima Estació (306),,39.606476,2.66863,12384,https://www.tib.org/web/ctm/parades/-/parada/306,,,,
1029,307,Camí dels Reis Estació (307),,39.61027,2.665381,12384,https://www.tib.org/web/ctm/parades/-/parada/307,,,,
1030,308,Son Sardina Estació (308),,39.620686,2.661261,12385,https://www.tib.org/web/ctm/parades/-/parada/308,,,,
1031,309,UIB Estació (309),,39.63461,2.647983,12386,https://www.tib.org/web/ctm/parades/-/parada/309,,,,
1038,45004,Galilea (45004),,39.609165,2.506009,12399,https://www.tib.org/web/ctm/parades/-/parada/45004,,,,
1039,45007,Conques 1 (45007),,39.609207,2.517153,12400,https://www.tib.org/web/ctm/parades/-/parada/45007,,,,
1040,45008,Conques 2 (45008),,39.609272,2.517073,12400,https://www.tib.org/web/ctm/parades/-/parada/45008,,,,
1041,45015,Son Serralta (45015),,39.618473,2.543626,12401,https://www.tib.org/web/ctm/parades/-/parada/45015,,,,
1042,45016,Torrent d'en Faveta (45016),,39.6203,2.540354,12401,https://www.tib.org/web/ctm/parades/-/parada/45016,,,,
1043,45017,Son Pont (45017),,39.617596,2.547261,12401,https://www.tib.org/web/ctm/parades/-/parada/45017,,,,
1044,45019,Puigpunyent (45019),,39.62323,2.527325,12402,https://www.tib.org/web/ctm/parades/-/parada/45019,,,,
1045,40063,Son Sardina 1 (40063),,39.620533,2.660542,12385,https://www.tib.org/web/ctm/parades/-/parada/40063,,,,
1046,40064,Son Sardina 2 (40064),,39.620903,2.660857,12385,https://www.tib.org/web/ctm/parades/-/parada/40064,,,,
1047,40037,Alfons el Magnànim (40037),,39.586254,2.653136,12376,https://www.tib.org/web/ctm/parades/-/parada/40037,,,,
1048,40034,Son Pacs 1 (40034),,39.60471,2.654832,12376,https://www.tib.org/web/ctm/parades/-/parada/40034,,,,
1049,40035,Son Pacs 2 (40035),,39.605076,2.655166,12376,https://www.tib.org/web/ctm/parades/-/parada/40035,,,,
1050,40086,S'Escorxador (40086),,39.586475,2.650669,12376,https://www.tib.org/web/ctm/parades/-/parada/40086,,,,
1052,10007,Sa Font Seca 1 (10007),,39.668285,2.671736,12403,https://www.tib.org/web/ctm/parades/-/parada/10007,,,,
1053,10008,Sa Font Seca 2 (10008),,39.66844,2.672089,12403,https://www.tib.org/web/ctm/parades/-/parada/10008,,,,
1054,10019,Clavells 2 (10019),,39.663277,2.670078,12403,https://www.tib.org/web/ctm/parades/-/parada/10019,,,,
1055,10020,Clavells 1 (10020),,39.663307,2.669915,12403,https://www.tib.org/web/ctm/parades/-/parada/10020,,,,
1056,10025,Sa Plaça (10025),,39.696472,2.69953,12404,https://www.tib.org/web/ctm/parades/-/parada/10025,,,,
1057,10026,Raixa 2 (10026),,39.67575,2.679575,12405,https://www.tib.org/web/ctm/parades/-/parada/10026,,,,
1058,10028,Roses (10028),,39.657948,2.672033,12403,https://www.tib.org/web/ctm/parades/-/parada/10028,,,,
1059,10030,Costa de s'Estació (10030),,39.697582,2.694947,12404,https://www.tib.org/web/ctm/parades/-/parada/10030,,,,
1060,10044,Pla de sa Coma (10044),,39.66783,2.683494,12406,https://www.tib.org/web/ctm/parades/-/parada/10044,,,,
1061,10045,Es Garrigó (10045),,39.69147,2.701889,12404,https://www.tib.org/web/ctm/parades/-/parada/10045,,,,
1062,40122,Son Fuster Vell 2 (40122),,39.59554,2.671233,12384,https://www.tib.org/web/ctm/parades/-/parada/40122,,,,
1063,40123,Son Fuster Vell 1 (40123),,39.595634,2.670999,12384,https://www.tib.org/web/ctm/parades/-/parada/40123,,,,
1064,40124,Eusebi Estada 1 (40124),,39.586716,2.663351,12376,https://www.tib.org/web/ctm/parades/-/parada/40124,,,,
1065,40125,Eusebi Estada 2 (40125),,39.586594,2.663548,12376,https://www.tib.org/web/ctm/parades/-/parada/40125,,,,
1066,36014,Cas Metge (36014),,39.62475,2.692296,12407,https://www.tib.org/web/ctm/parades/-/parada/36014,,,,
1067,36080,Can Sionet (36080),,39.627445,2.691652,12408,https://www.tib.org/web/ctm/parades/-/parada/36080,,,,
1068,36081,ASPACE 2 (36081),,39.648,2.698772,12408,https://www.tib.org/web/ctm/parades/-/parada/36081,,,,
1069,36082,Es Garrovers (36082),,39.62839,2.69905,12407,https://www.tib.org/web/ctm/parades/-/parada/36082,,,,
1070,36083,Son Daviu (36083),,39.633404,2.70328,12409,https://www.tib.org/web/ctm/parades/-/parada/36083,,,,
1071,36086,Nova Cabana 2 (36086),,39.610275,2.685008,12410,https://www.tib.org/web/ctm/parades/-/parada/36086,,,,
1072,36087,Nova Cabana 1 (36087),,39.610172,2.684793,12410,https://www.tib.org/web/ctm/parades/-/parada/36087,,,,
1073,36088,Sa Cabana (36088),,39.60354,2.687226,12411,https://www.tib.org/web/ctm/parades/-/parada/36088,,,,
1074,36096,ASPACE 1 (36096),,39.647423,2.698623,12408,https://www.tib.org/web/ctm/parades/-/parada/36096,,,,
1075,10012,Hospital Joan March (10012),,39.67891,2.68937,12412,https://www.tib.org/web/ctm/parades/-/parada/10012,,,,
1076,10036,Cas Molí (10036),,39.650356,2.699153,12413,https://www.tib.org/web/ctm/parades/-/parada/10036,,,,
1077,10037,Cas Binissalemer (10037),,39.657497,2.702213,12414,https://www.tib.org/web/ctm/parades/-/parada/10037,,,,
1084,36025,Pòrtol Nou (36025),,39.617573,2.78094,12416,https://www.tib.org/web/ctm/parades/-/parada/36025,,,,
1085,36028,Carrer Major (36028),,39.61668,2.767056,12417,https://www.tib.org/web/ctm/parades/-/parada/36028,,,,
1086,36029,CEIP Costa i Llobera 1 (36029),,39.616856,2.760969,12417,https://www.tib.org/web/ctm/parades/-/parada/36029,,,,
1087,36030,CEIP Costa i Llobera 2 (36030),,39.616978,2.760888,12417,https://www.tib.org/web/ctm/parades/-/parada/36030,,,,
1088,36033,Can Domingo (36033),,39.617306,2.755766,12418,https://www.tib.org/web/ctm/parades/-/parada/36033,,,,
1089,36034,Es Campet (36034),,39.620193,2.749267,12418,https://www.tib.org/web/ctm/parades/-/parada/36034,,,,
1090,36035,Nicolau Cotoner (36035),,39.62206,2.746294,12418,https://www.tib.org/web/ctm/parades/-/parada/36035,,,,
1091,36038,Olesa 1 (36038),,39.62335,2.746648,12418,https://www.tib.org/web/ctm/parades/-/parada/36038,,,,
1092,36039,Olesa 2 (36039),,39.62181,2.750606,12418,https://www.tib.org/web/ctm/parades/-/parada/36039,,,,
1093,36040,Olesa 3 (36040),,39.61952,2.755729,12418,https://www.tib.org/web/ctm/parades/-/parada/36040,,,,
1094,36041,Sant Marçal 1 (36041),,39.62295,2.74267,12419,https://www.tib.org/web/ctm/parades/-/parada/36041,,,,
1095,36095,Sant Marçal 2 (36095),,39.62305,2.742806,12419,https://www.tib.org/web/ctm/parades/-/parada/36095,,,,
1096,36042,Estació Marratxí (36042),,39.623783,2.725462,12382,https://www.tib.org/web/ctm/parades/-/parada/36042,,,,
1097,36044,Pòrtol 2 (36044),,39.61764,2.771941,12417,https://www.tib.org/web/ctm/parades/-/parada/36044,,,,
1098,36070,Pòrtol 1 (36070),,39.61723,2.771639,12417,https://www.tib.org/web/ctm/parades/-/parada/36070,,,,
1099,36071,Constitució (36071),,39.616344,2.7681,12417,https://www.tib.org/web/ctm/parades/-/parada/36071,,,,
1101,36073,Jaume I (36073),,39.61851,2.753058,12418,https://www.tib.org/web/ctm/parades/-/parada/36073,,,,
1102,36074,Son Verí (36074),,39.623135,2.735942,12420,https://www.tib.org/web/ctm/parades/-/parada/36074,,,,
1103,36093,Major - Can Pericàs 1 (36093),,39.617096,2.775218,12417,https://www.tib.org/web/ctm/parades/-/parada/36093,,,,
1104,36094,Major - Can Pericàs 2 (36094),,39.617,2.775093,12417,https://www.tib.org/web/ctm/parades/-/parada/36094,,,,
1107,4016,Ses Escoles 2 (4016),,39.563046,2.895928,12421,https://www.tib.org/web/ctm/parades/-/parada/4016,,,,
1109,4011,Alorda (4011),,39.56919,2.881924,12421,https://www.tib.org/web/ctm/parades/-/parada/4011,,,,
86,51032,Cala Millor centre (51032),,39.601162,3.381568,12640,https://www.tib.org/web/ctm/parades/-/parada/51032,,,,
1110,4004,Sa Talaieta (4004),,39.568104,2.884903,12421,https://www.tib.org/web/ctm/parades/-/parada/4004,,,,
1114,43004,Ronda d'Alcassor 2 (43004),,39.514202,3.029955,12423,https://www.tib.org/web/ctm/parades/-/parada/43004,,,,
1115,43006,Ronda de l'Estació 1 (43006),,39.510357,3.02344,12423,https://www.tib.org/web/ctm/parades/-/parada/43006,,,,
1116,43007,Ronda de l'Estació 2 (43007),,39.510597,3.022524,12423,https://www.tib.org/web/ctm/parades/-/parada/43007,,,,
1117,43008,N'Hereveta 1 (43008),,39.51854,3.020416,12423,https://www.tib.org/web/ctm/parades/-/parada/43008,,,,
1118,43009,N'Hereveta 2 (43009),,39.518436,3.020262,12423,https://www.tib.org/web/ctm/parades/-/parada/43009,,,,
1120,43013,Ronda d'Alcassor 1 (43013),,39.514194,3.029795,12423,https://www.tib.org/web/ctm/parades/-/parada/43013,,,,
1121,22003,IES Felanitx 1 (22003),,39.478947,3.140432,12424,https://www.tib.org/web/ctm/parades/-/parada/22003,,,,
1122,22004,IES Felanitx 2 (22004),,39.479378,3.13982,12424,https://www.tib.org/web/ctm/parades/-/parada/22004,,,,
1123,22040,República Argentina (22040),,39.474895,3.15228,12424,https://www.tib.org/web/ctm/parades/-/parada/22040,,,,
1124,22002,Ernest Mestre 2 (22002),,39.469196,3.144838,12424,https://www.tib.org/web/ctm/parades/-/parada/22002,,,,
1125,5001,Camp de Mar (5001),,39.540592,2.423281,12425,https://www.tib.org/web/ctm/parades/-/parada/5001,,,,
1126,5006,Camí des Prat 2 (5006),,39.5546,2.398895,12426,https://www.tib.org/web/ctm/parades/-/parada/5006,,,,
1127,5007,Camí des Prat 1 (5007),,39.555607,2.399253,12426,https://www.tib.org/web/ctm/parades/-/parada/5007,,,,
1128,5008,Camí des Rebolls 2 (5008),,39.54903,2.395741,12426,https://www.tib.org/web/ctm/parades/-/parada/5008,,,,
1129,5009,Camí des Rebolls 1 (5009),,39.54904,2.395968,12426,https://www.tib.org/web/ctm/parades/-/parada/5009,,,,
1130,5011,Llotja (5011),,39.545563,2.390162,12427,https://www.tib.org/web/ctm/parades/-/parada/5011,,,,
1131,5012,Club de vela (5012),,39.54846,2.386469,12427,https://www.tib.org/web/ctm/parades/-/parada/5012,,,,
1133,5014,Sant Elm 2 (5014),,39.57812,2.354306,12429,https://www.tib.org/web/ctm/parades/-/parada/5014,,,,
1134,5015,Sant Elm 1 (5015),,39.578007,2.354334,12429,https://www.tib.org/web/ctm/parades/-/parada/5015,,,,
1135,5017,S'Algar (5017),,39.58133,2.35004,12429,https://www.tib.org/web/ctm/parades/-/parada/5017,,,,
1137,5027,S'Aluet (5027),,39.546196,2.39102,12427,https://www.tib.org/web/ctm/parades/-/parada/5027,,,,
1138,5029,Cementeri de s'Arracó (5029),,39.58028,2.378945,12430,https://www.tib.org/web/ctm/parades/-/parada/5029,,,,
1139,5030,Supermercat (5030),,39.570717,2.421302,12431,https://www.tib.org/web/ctm/parades/-/parada/5030,,,,
1140,5031,Torrent (5031),,39.57046,2.420654,12431,https://www.tib.org/web/ctm/parades/-/parada/5031,,,,
1141,5035,Son Sampol (5035),,39.575523,2.423779,12431,https://www.tib.org/web/ctm/parades/-/parada/5035,,,,
1142,11001,Ctra. Andratx - Mar i Cel 1 (11001),,39.54752,2.596142,12432,https://www.tib.org/web/ctm/parades/-/parada/11001,,,,
1143,11011,Ctra. Andratx - Av. Mallorca 2 (11011),,39.543095,2.589283,12432,https://www.tib.org/web/ctm/parades/-/parada/11011,,,,
1144,11012,Ctra. Andratx - Av. Mallorca 1 (11012),,39.542946,2.589232,12432,https://www.tib.org/web/ctm/parades/-/parada/11012,,,,
1145,11013,Bendinat 2 (11013),,39.53982,2.581972,12434,https://www.tib.org/web/ctm/parades/-/parada/11013,,,,
1146,11014,Bendinat 1 (11014),,39.539783,2.582189,12434,https://www.tib.org/web/ctm/parades/-/parada/11014,,,,
1147,11015,Ctra. Andratx - Vaquer 2 (11015),,39.5378,2.575797,12435,https://www.tib.org/web/ctm/parades/-/parada/11015,,,,
1148,11016,Ctra. Andratx - Vaquer 1 (11016),,39.53727,2.575137,12435,https://www.tib.org/web/ctm/parades/-/parada/11016,,,,
1149,11017,Plaça de Portals 2 (11017),,39.535156,2.572607,12435,https://www.tib.org/web/ctm/parades/-/parada/11017,,,,
1150,11018,Plaça de Portals 1 (11018),,39.535053,2.572556,12435,https://www.tib.org/web/ctm/parades/-/parada/11018,,,,
1151,11019,Portals Nous 1 (11019),,39.5334,2.563992,41,https://www.tib.org/web/ctm/parades/-/parada/11019,,,,
1152,11020,Portals Nous 2 (11020),,39.533554,2.563968,41,https://www.tib.org/web/ctm/parades/-/parada/11020,,,,
1153,11021,Punta Negra 2 (11021),,39.529438,2.552029,12437,https://www.tib.org/web/ctm/parades/-/parada/11021,,,,
1154,11022,Punta Negra 1 (11022),,39.529346,2.552221,12437,https://www.tib.org/web/ctm/parades/-/parada/11022,,,,
1155,11023,Son Caliu 2 (11023),,39.52839,2.544591,12437,https://www.tib.org/web/ctm/parades/-/parada/11023,,,,
1156,11024,Son Caliu 1 (11024),,39.528194,2.544064,12437,https://www.tib.org/web/ctm/parades/-/parada/11024,,,,
1158,11028,Punta Marroig 2 (11028),,39.522152,2.537677,12438,https://www.tib.org/web/ctm/parades/-/parada/11028,,,,
1159,11029,Punta Marroig 1 (11029),,39.522038,2.53777,12438,https://www.tib.org/web/ctm/parades/-/parada/11029,,,,
1160,11030,Platja de Palmanova 2 (11030),,39.519535,2.535907,12438,https://www.tib.org/web/ctm/parades/-/parada/11030,,,,
1161,11031,Platja de Palmanova 1 (11031),,39.519363,2.535847,12438,https://www.tib.org/web/ctm/parades/-/parada/11031,,,,
1162,11032,Pinzons 2 (11032),,39.518085,2.533487,12438,https://www.tib.org/web/ctm/parades/-/parada/11032,,,,
1163,11033,Pinzons 1 (11033),,39.51714,2.533742,12438,https://www.tib.org/web/ctm/parades/-/parada/11033,,,,
1164,11035,Platja de Son Maties 2 (11035),,39.515305,2.536111,12438,https://www.tib.org/web/ctm/parades/-/parada/11035,,,,
1165,11036,Platja de Son Maties 1 (11036),,39.515396,2.536167,12438,https://www.tib.org/web/ctm/parades/-/parada/11036,,,,
1166,11039,Pere Vaquer Ramis 2 (11039),,39.51147,2.535148,12439,https://www.tib.org/web/ctm/parades/-/parada/11039,,,,
1167,11040,Pere Vaquer Ramis 1 (11040),,39.51155,2.535475,12439,https://www.tib.org/web/ctm/parades/-/parada/11040,,,,
1168,11043,Notari Alemany 1 (11043),,39.504574,2.532122,12439,https://www.tib.org/web/ctm/parades/-/parada/11043,,,,
1169,11044,Notari Alemany 2 (11044),,39.50388,2.531427,12439,https://www.tib.org/web/ctm/parades/-/parada/11044,,,,
1173,11049,Camí Porrassa 2 (11049),,39.505184,2.529796,12439,https://www.tib.org/web/ctm/parades/-/parada/11049,,,,
1174,11050,Camí Porrassa 1 (11050),,39.504,2.527882,12439,https://www.tib.org/web/ctm/parades/-/parada/11050,,,,
1175,11052,Parc aquàtic 1 (11052),,39.50577,2.51895,12440,https://www.tib.org/web/ctm/parades/-/parada/11052,,,,
1176,11053,Parc aquàtic 2 (11053),,39.50521,2.518513,12440,https://www.tib.org/web/ctm/parades/-/parada/11053,,,,
1181,11059,Av. Mallorca - Av. Balear 1 (11059),,39.48418,2.520176,12442,https://www.tib.org/web/ctm/parades/-/parada/11059,,,,
1182,11060,Sol de Mallorca (11060),,39.48053,2.52254,12442,https://www.tib.org/web/ctm/parades/-/parada/11060,,,,
1183,11061,Tudó 1 (11061),,39.496277,2.507793,12443,https://www.tib.org/web/ctm/parades/-/parada/11061,,,,
1184,11062,Tudó 2 (11062),,39.49636,2.507866,12443,https://www.tib.org/web/ctm/parades/-/parada/11062,,,,
1185,11064,Còndor (11064),,39.498783,2.505384,12443,https://www.tib.org/web/ctm/parades/-/parada/11064,,,,
1186,11067,Falcó 2 (11067),,39.494713,2.500947,12443,https://www.tib.org/web/ctm/parades/-/parada/11067,,,,
1187,11068,Falcó 1 (11068),,39.495087,2.500896,12443,https://www.tib.org/web/ctm/parades/-/parada/11068,,,,
1188,11069,Milana (11069),,39.499508,2.505158,12443,https://www.tib.org/web/ctm/parades/-/parada/11069,,,,
1189,11070,Port Adriano 2 (11070),,39.492176,2.4817424,12444,https://www.tib.org/web/ctm/parades/-/parada/11070,,,,
1190,11071,Port Adriano 1 (11071),,39.49194,2.481672,12444,https://www.tib.org/web/ctm/parades/-/parada/11071,,,,
1191,11072,Ctra. Magaluf - Santa Ponça 2 (11072),,39.493828,2.477118,12444,https://www.tib.org/web/ctm/parades/-/parada/11072,,,,
1192,11073,Ctra. Magaluf - Santa Ponça 1 (11073),,39.49364,2.477356,12444,https://www.tib.org/web/ctm/parades/-/parada/11073,,,,
1193,11074,Gran Via Penyes Roges 2 (11074),,39.496513,2.470214,12445,https://www.tib.org/web/ctm/parades/-/parada/11074,,,,
1194,11075,Gran Via Penyes Roges 1 (11075),,39.496616,2.469219,12445,https://www.tib.org/web/ctm/parades/-/parada/11075,,,,
1196,11079,Gran Via (11079),,39.487907,2.480914,12444,https://www.tib.org/web/ctm/parades/-/parada/11079,,,,
1197,11081,Malgrats 2 (11081),,39.504387,2.462618,12445,https://www.tib.org/web/ctm/parades/-/parada/11081,,,,
1198,11082,Malgrats 1 (11082),,39.5042,2.462123,12445,https://www.tib.org/web/ctm/parades/-/parada/11082,,,,
1199,11083,Club Nàutic Santa Ponça 2 (11083),,39.507755,2.468316,12446,https://www.tib.org/web/ctm/parades/-/parada/11083,,,,
1200,11084,Club Nàutic Santa Ponça 1 (11084),,39.50776,2.468166,12446,https://www.tib.org/web/ctm/parades/-/parada/11084,,,,
1201,11085,Caló d'en Pellicer 2 (11085),,39.511124,2.474106,12446,https://www.tib.org/web/ctm/parades/-/parada/11085,,,,
1202,11086,Caló d'en Pellicer 1 (11086),,39.51122,2.473895,12446,https://www.tib.org/web/ctm/parades/-/parada/11086,,,,
1203,11089,Sa Pinada (11089),,39.5147,2.482631,12446,https://www.tib.org/web/ctm/parades/-/parada/11089,,,,
1204,11178,Platja de Santa Ponça (11178),,39.514996,2.482392,12446,https://www.tib.org/web/ctm/parades/-/parada/11178,,,,
1206,11091,Santa Ponça est 2 (11091),,39.51754,2.487706,12446,https://www.tib.org/web/ctm/parades/-/parada/11091,,,,
1207,11092,Molí de Santa Ponça 2 (11092),,39.5216,2.49393,12447,https://www.tib.org/web/ctm/parades/-/parada/11092,,,,
1208,11093,Molí de Santa Ponça 1 (11093),,39.521587,2.492997,12447,https://www.tib.org/web/ctm/parades/-/parada/11093,,,,
1211,11100,Subestació Santa Ponça 2 (11100),,39.53697,2.512789,12448,https://www.tib.org/web/ctm/parades/-/parada/11100,,,,
1212,11101,Subestació Santa Ponça 1 (11101),,39.536938,2.512578,12448,https://www.tib.org/web/ctm/parades/-/parada/11101,,,,
1213,11105,Av. de la Mar - Centre (11105),,39.52493,2.474451,12449,https://www.tib.org/web/ctm/parades/-/parada/11105,,,,
1214,11107,Av. de la Mar - Mireia (11107),,39.526974,2.482484,12449,https://www.tib.org/web/ctm/parades/-/parada/11107,,,,
1215,11108,Carrer Santa Ponça (11108),,39.521965,2.473184,12449,https://www.tib.org/web/ctm/parades/-/parada/11108,,,,
1216,11118,Es Capdellà (11118),,39.578045,2.471065,12450,https://www.tib.org/web/ctm/parades/-/parada/11118,,,,
1217,11119,Zona poliesportiva 1 (11119),,39.566387,2.496515,12451,https://www.tib.org/web/ctm/parades/-/parada/11119,,,,
1218,11120,Zona poliesportiva 2 (11120),,39.566452,2.496665,12451,https://www.tib.org/web/ctm/parades/-/parada/11120,,,,
1219,11121,Av. es Capdellà 1 (11121),,39.56546,2.50251,12451,https://www.tib.org/web/ctm/parades/-/parada/11121,,,,
1220,11122,Av. es Capdellà 2 (11122),,39.565346,2.503695,12451,https://www.tib.org/web/ctm/parades/-/parada/11122,,,,
1221,11123,Av. Palma (11123),,39.563602,2.504483,12451,https://www.tib.org/web/ctm/parades/-/parada/11123,,,,
1222,11126,Ses Quarterades 1 (11126),,39.554684,2.511806,12452,https://www.tib.org/web/ctm/parades/-/parada/11126,,,,
1223,11127,Ses Quarterades 2 (11127),,39.553646,2.513489,12452,https://www.tib.org/web/ctm/parades/-/parada/11127,,,,
1224,11128,Son Boronat 1 (11128),,39.545265,2.517493,12452,https://www.tib.org/web/ctm/parades/-/parada/11128,,,,
1225,11129,Son Boronat 2 (11129),,39.545994,2.517562,12452,https://www.tib.org/web/ctm/parades/-/parada/11129,,,,
1227,11132,Palmira 2 (11132),,39.537796,2.451538,12453,https://www.tib.org/web/ctm/parades/-/parada/11132,,,,
1228,11133,Palmira 1 (11133),,39.537373,2.448539,12453,https://www.tib.org/web/ctm/parades/-/parada/11133,,,,
1229,11137,Bulevard - Garrovers 2 (11137),,39.53743,2.44112,12453,https://www.tib.org/web/ctm/parades/-/parada/11137,,,,
1230,11138,Bulevard - Garrovers 1 (11138),,39.537315,2.441149,12453,https://www.tib.org/web/ctm/parades/-/parada/11138,,,,
1231,11144,Ctra. Andratx - Mar i Cel 2 (11144),,39.54741,2.595702,12432,https://www.tib.org/web/ctm/parades/-/parada/11144,,,,
1232,11145,"Ramon de Montcada, 9 (11145)",,39.519318,2.479761,12446,https://www.tib.org/web/ctm/parades/-/parada/11145,,,,
1233,11146,"Ramon de Montcada, 25 (11146)",,39.51944,2.474723,12446,https://www.tib.org/web/ctm/parades/-/parada/11146,,,,
1234,11147,Santa Ponça oest 1 (11147),,39.51279,2.475647,12446,https://www.tib.org/web/ctm/parades/-/parada/11147,,,,
1235,11148,Santa Ponça oest 2 (11148),,39.51294,2.477019,12446,https://www.tib.org/web/ctm/parades/-/parada/11148,,,,
1236,11152,Av. Mallorca - Av. Balear 2 (11152),,39.483276,2.520493,12442,https://www.tib.org/web/ctm/parades/-/parada/11152,,,,
1237,11157,Olivera 1 (11157),,39.51104,2.532739,12439,https://www.tib.org/web/ctm/parades/-/parada/11157,,,,
1238,11158,Olivera 2 (11158),,39.510365,2.532668,12439,https://www.tib.org/web/ctm/parades/-/parada/11158,,,,
1239,11159,Av. Mallorca - Alba 2 (11159),,39.486893,2.52001,12442,https://www.tib.org/web/ctm/parades/-/parada/11159,,,,
1240,11160,Av. Mallorca - Alba 1 (11160),,39.48695,2.520141,12442,https://www.tib.org/web/ctm/parades/-/parada/11160,,,,
1241,11161,La Romana (11161),,39.535664,2.460962,12453,https://www.tib.org/web/ctm/parades/-/parada/11161,,,,
1243,11179,Santa Ponça centre 2 (11179),,39.515553,2.48344,12446,https://www.tib.org/web/ctm/parades/-/parada/11179,,,,
1244,11174,Palmanova oest 2 (11174),,39.522472,2.531659,12438,https://www.tib.org/web/ctm/parades/-/parada/11174,,,,
1245,11173,Palmanova oest 1 (11173),,39.52225,2.531678,12438,https://www.tib.org/web/ctm/parades/-/parada/11173,,,,
1246,11169,Cala Vinyes 1 (11169),,39.49662,2.530741,12441,https://www.tib.org/web/ctm/parades/-/parada/11169,,,,
1247,11176,Palmanova nord 2 (11176),,39.52694,2.538859,12438,https://www.tib.org/web/ctm/parades/-/parada/11176,,,,
1248,11175,Palmanova nord 1 (11175),,39.526783,2.538926,12438,https://www.tib.org/web/ctm/parades/-/parada/11175,,,,
1250,11170,Plaça Migdia (11170),,39.48518,2.48242,12444,https://www.tib.org/web/ctm/parades/-/parada/11170,,,,
1257,11177,Mar i Cel (11177),,39.54766,2.595725,12432,https://www.tib.org/web/ctm/parades/-/parada/11177,,,,
1258,11171,Son Bugadelles 1 (11171),,39.529373,2.506883,12454,https://www.tib.org/web/ctm/parades/-/parada/11171,,,,
1259,11172,Son Bugadelles 2 (11172),,39.529636,2.507751,12454,https://www.tib.org/web/ctm/parades/-/parada/11172,,,,
1260,11180,Av. Santa Ponça - Shakespeare (11180),,39.50204,2.473707,12445,https://www.tib.org/web/ctm/parades/-/parada/11180,,,,
1261,11181,Av. Santa Ponça - Gran Via del Port (11181),,39.509087,2.4771073,12445,https://www.tib.org/web/ctm/parades/-/parada/11181,,,,
1262,40046,Ctra. Valldemossa 2 (40046),,39.592796,2.648015,12376,https://www.tib.org/web/ctm/parades/-/parada/40046,,,,
1263,40047,Ctra. Valldemossa 1 (40047),,39.592693,2.647875,12376,https://www.tib.org/web/ctm/parades/-/parada/40047,,,,
1268,40059,UIB - Estació de metro (40059),,39.634426,2.647641,12386,https://www.tib.org/web/ctm/parades/-/parada/40059,,,,
1269,40130,Can Moreno 2 (40130),,39.616924,2.646264,12376,https://www.tib.org/web/ctm/parades/-/parada/40130,,,,
1270,40131,Can Moreno 1 (40131),,39.616524,2.645679,12376,https://www.tib.org/web/ctm/parades/-/parada/40131,,,,
1271,21002,Estellencs 1 (21002),,39.65252,2.480466,12455,https://www.tib.org/web/ctm/parades/-/parada/21002,,,,
1272,21007,Estellencs 2 (21007),,39.6526,2.480319,12455,https://www.tib.org/web/ctm/parades/-/parada/21007,,,,
1273,21006,Can Rave 2 (21006),,39.656227,2.487259,12456,https://www.tib.org/web/ctm/parades/-/parada/21006,,,,
1274,21009,Can Rave 1 (21009),,39.65628,2.4873881,12456,https://www.tib.org/web/ctm/parades/-/parada/21009,,,,
1275,7002,Banyalbufar 1 (7002),,39.686924,2.513128,12457,https://www.tib.org/web/ctm/parades/-/parada/7002,,,,
1276,7003,Banyalbufar 2 (7003),,39.687283,2.513794,12457,https://www.tib.org/web/ctm/parades/-/parada/7003,,,,
1277,7004,Torre des Verger (7004),,39.683273,2.500339,12458,https://www.tib.org/web/ctm/parades/-/parada/7004,,,,
1278,7006,Miramar 2 (7006),,39.68768,2.5192325,12457,https://www.tib.org/web/ctm/parades/-/parada/7006,,,,
1279,7015,Miramar 1 (7015),,39.687523,2.519199,12457,https://www.tib.org/web/ctm/parades/-/parada/7015,,,,
1280,7007,Ctra. Banyalbufar-Esporles 1 (7007),,39.68068,2.551284,12458,https://www.tib.org/web/ctm/parades/-/parada/7007,,,,
1281,7013,Ctra. Banyalbufar-Esporles 2 (7013),,39.680195,2.557613,12458,https://www.tib.org/web/ctm/parades/-/parada/7013,,,,
1282,7014,Planícia (7014),,39.672523,2.494422,12458,https://www.tib.org/web/ctm/parades/-/parada/7014,,,,
1283,20001,Ses Rogetes de Canet 1 (20001),,39.656662,2.629473,12459,https://www.tib.org/web/ctm/parades/-/parada/20001,,,,
1284,20002,Ses Rogetes de Canet 2 (20002),,39.656734,2.629287,12459,https://www.tib.org/web/ctm/parades/-/parada/20002,,,,
1285,20003,Ses Rotes 2 (20003),,39.659386,2.611562,12460,https://www.tib.org/web/ctm/parades/-/parada/20003,,,,
1286,20004,Ses Rotes 1 (20004),,39.659306,2.611552,12460,https://www.tib.org/web/ctm/parades/-/parada/20004,,,,
1287,20007,La Vila Nova 2 (20007),,39.662125,2.583111,12461,https://www.tib.org/web/ctm/parades/-/parada/20007,,,,
1288,20008,La Vila Nova 1 (20008),,39.66207,2.583076,12461,https://www.tib.org/web/ctm/parades/-/parada/20008,,,,
1289,20010,S'Esgleieta 1 (20010),,39.659184,2.641395,12463,https://www.tib.org/web/ctm/parades/-/parada/20010,,,,
1290,20011,S'Esgleieta 2 (20011),,39.659206,2.641577,12463,https://www.tib.org/web/ctm/parades/-/parada/20011,,,,
1291,20019,Esporles 2 (20019),,39.666767,2.578994,12461,https://www.tib.org/web/ctm/parades/-/parada/20019,,,,
1292,20020,Esporles 1 (20020),,39.666615,2.5789373,12461,https://www.tib.org/web/ctm/parades/-/parada/20020,,,,
1293,20016,IES Josep Font i Trias 2 (20016),,39.659622,2.588826,12461,https://www.tib.org/web/ctm/parades/-/parada/20016,,,,
1294,20017,IES Josep Font i Trias 1 (20017),,39.659428,2.589379,12461,https://www.tib.org/web/ctm/parades/-/parada/20017,,,,
1295,20018,La Granja (20018),,39.670807,2.561751,12461,https://www.tib.org/web/ctm/parades/-/parada/20018,,,,
1296,40004,S'Aigua Dolça 2 (40004),,39.562794,2.627064,12376,https://www.tib.org/web/ctm/parades/-/parada/40004,,,,
1297,40005,Can Barbarà 2 (40005),,39.559357,2.626443,12376,https://www.tib.org/web/ctm/parades/-/parada/40005,,,,
1298,40006,Can Barbarà 1 (40006),,39.5595,2.626739,12376,https://www.tib.org/web/ctm/parades/-/parada/40006,,,,
1299,40007,Porto Pi 2 (40007),,39.554764,2.624058,12376,https://www.tib.org/web/ctm/parades/-/parada/40007,,,,
1300,40008,Porto Pi 1 (40008),,39.55404,2.62389,12376,https://www.tib.org/web/ctm/parades/-/parada/40008,,,,
1301,40009,Mirador Cala Major (40009),,39.55268,2.608217,12374,https://www.tib.org/web/ctm/parades/-/parada/40009,,,,
1302,40010,Marivent 1 (40010),,39.551826,2.612127,12376,https://www.tib.org/web/ctm/parades/-/parada/40010,,,,
1303,40012,Marivent 2 (40012),,39.551575,2.611241,12376,https://www.tib.org/web/ctm/parades/-/parada/40012,,,,
1304,40023,S'Aigua Dolça 1 (40023),,39.562813,2.627447,12376,https://www.tib.org/web/ctm/parades/-/parada/40023,,,,
1305,40025,Marítim - Monsenyor Palmer 2 (40025),,39.568897,2.633962,12376,https://www.tib.org/web/ctm/parades/-/parada/40025,,,,
1306,40074,Marítim - Monsenyor Palmer 1 (40074),,39.568104,2.631333,12376,https://www.tib.org/web/ctm/parades/-/parada/40074,,,,
1316,1001,Alaró (1001),,39.704533,2.792038,12484,https://www.tib.org/web/ctm/parades/-/parada/1001,,,,
1317,3056,Platja dels Francesos 1 (3056),,39.817493,3.114038,12491,https://www.tib.org/web/ctm/parades/-/parada/3056,,,,
1318,3057,Platja dels Francesos 2 (3057),,39.818542,3.114053,12491,https://www.tib.org/web/ctm/parades/-/parada/3057,,,,
1319,3058,Estany dels Ponts 1 (3058),,39.82415,3.115266,12491,https://www.tib.org/web/ctm/parades/-/parada/3058,,,,
1320,3059,Estany dels Ponts 2 (3059),,39.82545,3.115343,12491,https://www.tib.org/web/ctm/parades/-/parada/3059,,,,
1321,3060,Ciutat Blanca 1 (3060),,39.830833,3.116817,12491,https://www.tib.org/web/ctm/parades/-/parada/3060,,,,
1322,3061,Ciutat Blanca 2 (3061),,39.83115,3.116765,12491,https://www.tib.org/web/ctm/parades/-/parada/3061,,,,
1323,3062,Pla del Pinar 1 (3062),,39.83705,3.119439,12491,https://www.tib.org/web/ctm/parades/-/parada/3062,,,,
1324,3063,Pla del Pinar 2 (3063),,39.837402,3.119472,12491,https://www.tib.org/web/ctm/parades/-/parada/3063,,,,
1325,3064,Entre-mar-i-estany 1 (3064),,39.840343,3.123843,12492,https://www.tib.org/web/ctm/parades/-/parada/3064,,,,
1326,3065,Entre-mar-i-estany 2 (3065),,39.840538,3.124283,12492,https://www.tib.org/web/ctm/parades/-/parada/3065,,,,
1333,3033,Pol·lèntia (3033),,39.851456,3.122748,12494,https://www.tib.org/web/ctm/parades/-/parada/3033,,,,
1334,3034,Centre històric (3034),,39.851673,3.123069,12494,https://www.tib.org/web/ctm/parades/-/parada/3034,,,,
1338,3037,Ses Forques 2 (3037),,39.85253,3.1144116,12494,https://www.tib.org/web/ctm/parades/-/parada/3037,,,,
1339,3038,Ses Forques 1 (3038),,39.852417,3.114314,12494,https://www.tib.org/web/ctm/parades/-/parada/3038,,,,
1340,3041,Can Capdebou (3041),,39.86348,3.093675,12496,https://www.tib.org/web/ctm/parades/-/parada/3041,,,,
1341,3054,Port d'Alcúdia 1 (3054),,39.841602,3.130099,12492,https://www.tib.org/web/ctm/parades/-/parada/3054,,,,
1342,3055,Port d'Alcúdia 2 (3055),,39.841564,3.129225,12492,https://www.tib.org/web/ctm/parades/-/parada/3055,,,,
1343,3040,Sa Marina 1 (3040),,39.856888,3.105549,12497,https://www.tib.org/web/ctm/parades/-/parada/3040,,,,
1344,3039,Sa Marina 2 (3039),,39.856754,3.106254,12497,https://www.tib.org/web/ctm/parades/-/parada/3039,,,,
1345,6001,Artà 2 (6001),,39.69087,3.350389,12499,https://www.tib.org/web/ctm/parades/-/parada/6001,,,,
1346,6002,Artà 1 (6002),,39.691063,3.349884,12499,https://www.tib.org/web/ctm/parades/-/parada/6002,,,,
1347,6003,Colònia de Sant Pere (6003),,39.736866,3.276579,12500,https://www.tib.org/web/ctm/parades/-/parada/6003,,,,
1348,6004,Montferrutx 1 (6004),,39.733387,3.275008,12500,https://www.tib.org/web/ctm/parades/-/parada/6004,,,,
1349,6009,Montferrutx 2 (6009),,39.73349,3.275078,12500,https://www.tib.org/web/ctm/parades/-/parada/6009,,,,
1351,10015,Can Penasso 2 (10015),,39.69584,2.687516,12405,https://www.tib.org/web/ctm/parades/-/parada/10015,,,,
1352,10017,Orient (10017),,39.733868,2.761239,12502,https://www.tib.org/web/ctm/parades/-/parada/10017,,,,
1353,10029,Can Penasso 1 (10029),,39.695076,2.686827,12405,https://www.tib.org/web/ctm/parades/-/parada/10029,,,,
1354,10034,Jardins d'Alfàbia (10034),,39.716053,2.690694,12405,https://www.tib.org/web/ctm/parades/-/parada/10034,,,,
1355,12002,Campanet (12002),,39.77451,2.966277,12508,https://www.tib.org/web/ctm/parades/-/parada/12002,,,,
1356,16001,Polígon de Consell (16001),,39.664585,2.804445,12388,https://www.tib.org/web/ctm/parades/-/parada/16001,,,,
1357,16003,Carrer Palma 2 (16003),,39.667255,2.809641,12388,https://www.tib.org/web/ctm/parades/-/parada/16003,,,,
1358,16005,Carrer Alcúdia 2 (16005),,39.669754,2.815269,12388,https://www.tib.org/web/ctm/parades/-/parada/16005,,,,
1359,16006,Carrer Alcúdia 1 (16006),,39.669563,2.815024,12388,https://www.tib.org/web/ctm/parades/-/parada/16006,,,,
1360,16008,Estació Alaró/Consell (16008),,39.6781,2.809047,12388,https://www.tib.org/web/ctm/parades/-/parada/16008,,,,
1361,16010,Carrer Palma 1 (16010),,39.66684,2.808984,12388,https://www.tib.org/web/ctm/parades/-/parada/16010,,,,
1362,17002,Camí dels Horts (17002),,39.65112,2.943288,12509,https://www.tib.org/web/ctm/parades/-/parada/17002,,,,
1363,17003,Camí de s'Estepar (17003),,39.66483,2.960216,12510,https://www.tib.org/web/ctm/parades/-/parada/17003,,,,
1364,17004,Camí de Son Ganxó (17004),,39.665993,2.962466,12510,https://www.tib.org/web/ctm/parades/-/parada/17004,,,,
1366,17006,Costitx 2 (17006),,39.655327,2.949527,12511,https://www.tib.org/web/ctm/parades/-/parada/17006,,,,
1367,18001,Es Clot 2 (18001),,39.747448,2.64179,12518,https://www.tib.org/web/ctm/parades/-/parada/18001,,,,
1368,18002,Deià 1 (18002),,39.748653,2.64884,12518,https://www.tib.org/web/ctm/parades/-/parada/18002,,,,
1369,18003,S'Empeltada 1 (18003),,39.754417,2.647589,12519,https://www.tib.org/web/ctm/parades/-/parada/18003,,,,
1370,18004,S'Empeltada 2 (18004),,39.75444,2.647776,12519,https://www.tib.org/web/ctm/parades/-/parada/18004,,,,
1371,18005,Llucalcari 1 (18005),,39.76396,2.654488,12520,https://www.tib.org/web/ctm/parades/-/parada/18005,,,,
1372,18006,Llucalcari 2 (18006),,39.763947,2.654635,12520,https://www.tib.org/web/ctm/parades/-/parada/18006,,,,
1373,18007,Son Gallard 2 (18007),,39.740013,2.62249,12521,https://www.tib.org/web/ctm/parades/-/parada/18007,,,,
1374,18008,Son Gallard 1 (18008),,39.739372,2.621851,12521,https://www.tib.org/web/ctm/parades/-/parada/18008,,,,
1375,18009,Sa Foradada (18009),,39.74937,2.631002,12521,https://www.tib.org/web/ctm/parades/-/parada/18009,,,,
1376,18010,Deià 2 (18010),,39.748634,2.648958,12518,https://www.tib.org/web/ctm/parades/-/parada/18010,,,,
1377,18011,Es Clot 1 (18011),,39.747414,2.642027,12518,https://www.tib.org/web/ctm/parades/-/parada/18011,,,,
1378,19002,Coll de sa Batalla 2 (19002),,39.81222,2.889815,12524,https://www.tib.org/web/ctm/parades/-/parada/19002,,,,
1379,19003,Coll de sa Batalla 1 (19003),,39.812187,2.889695,12524,https://www.tib.org/web/ctm/parades/-/parada/19003,,,,
1382,19011,Lluc (19011),,39.82131,2.88451,12526,https://www.tib.org/web/ctm/parades/-/parada/19011,,,,
1386,27001,Estació d'autobusos (27001),,39.718678,2.904787,12391,https://www.tib.org/web/ctm/parades/-/parada/27001,,,,
1387,27003,Gran Via de Colom 1 (27003),,39.71744,2.912301,12391,https://www.tib.org/web/ctm/parades/-/parada/27003,,,,
1388,27004,Gran Via de Colom 2 (27004),,39.717747,2.912069,12391,https://www.tib.org/web/ctm/parades/-/parada/27004,,,,
1389,27005,Hospital d'Inca 2 (27005),,39.716637,2.922799,12391,https://www.tib.org/web/ctm/parades/-/parada/27005,,,,
1390,27012,Inca nord 1 (27012),,39.726574,2.922321,12391,https://www.tib.org/web/ctm/parades/-/parada/27012,,,,
1391,27013,Inca Llevant 2 (27013),,39.716114,2.916249,12391,https://www.tib.org/web/ctm/parades/-/parada/27013,,,,
1392,27014,Inca Llevant 1 (27014),,39.716007,2.91617,12391,https://www.tib.org/web/ctm/parades/-/parada/27014,,,,
1394,27015,Mandrava 1 (27015),,39.723602,2.903277,12391,https://www.tib.org/web/ctm/parades/-/parada/27015,,,,
1395,27016,Mandrava 2 (27016),,39.72362,2.903445,12391,https://www.tib.org/web/ctm/parades/-/parada/27016,,,,
1396,29004,Lloseta (29004),,39.720364,2.872869,12390,https://www.tib.org/web/ctm/parades/-/parada/29004,,,,
1397,30001,Llubí 1 (30001),,39.70095,3.00833,12393,https://www.tib.org/web/ctm/parades/-/parada/30001,,,,
1398,30002,Llubí 2 (30002),,39.70087,3.008409,12393,https://www.tib.org/web/ctm/parades/-/parada/30002,,,,
1399,34002,Mancor de la Vall (34002),,39.74947,2.872909,12512,https://www.tib.org/web/ctm/parades/-/parada/34002,,,,
1400,39004,Els Pins 2 (39004),,39.788677,3.124843,12498,https://www.tib.org/web/ctm/parades/-/parada/39004,,,,
1401,39005,Els Pins 1 (39005),,39.789127,3.124734,12498,https://www.tib.org/web/ctm/parades/-/parada/39005,,,,
1402,39006,S'Albufera 1 (39006),,39.799824,3.119302,12498,https://www.tib.org/web/ctm/parades/-/parada/39006,,,,
1403,39007,S'Albufera 2 (39007),,39.799446,3.119251,12498,https://www.tib.org/web/ctm/parades/-/parada/39007,,,,
1404,39012,Las Gaviotas 2 (39012),,39.812702,3.114982,12498,https://www.tib.org/web/ctm/parades/-/parada/39012,,,,
1405,39013,Las Gaviotas 1 (39013),,39.812656,3.115157,12498,https://www.tib.org/web/ctm/parades/-/parada/39013,,,,
1406,39020,Ses Fotges 1 (39020),,39.808033,3.116647,12498,https://www.tib.org/web/ctm/parades/-/parada/39020,,,,
1407,39038,Los Troncos 2 (39038),,39.80463,3.117541,12498,https://www.tib.org/web/ctm/parades/-/parada/39038,,,,
1408,39039,Los Troncos 1 (39039),,39.803616,3.118063,12498,https://www.tib.org/web/ctm/parades/-/parada/39039,,,,
1409,39040,Ses Fotges 2 (39040),,39.8087,3.116237,12498,https://www.tib.org/web/ctm/parades/-/parada/39040,,,,
1410,39023,Casetes des Capellans 1 (39023),,39.77362,3.139979,12498,https://www.tib.org/web/ctm/parades/-/parada/39023,,,,
1411,39024,Casetes des Capellans 2 (39024),,39.77342,3.139932,12498,https://www.tib.org/web/ctm/parades/-/parada/39024,,,,
1415,40067,Sa Creu Vermella 2 (40067),,39.57881,2.716506,12527,https://www.tib.org/web/ctm/parades/-/parada/40067,,,,
1416,40068,Sa Creu Vermella 1 (40068),,39.578926,2.716789,12527,https://www.tib.org/web/ctm/parades/-/parada/40068,,,,
1417,40069,S'Hostalot 1 (40069),,39.586025,2.732031,12528,https://www.tib.org/web/ctm/parades/-/parada/40069,,,,
1418,40070,S'Hostalot 2 (40070),,39.585964,2.73229,12528,https://www.tib.org/web/ctm/parades/-/parada/40070,,,,
1419,40127,Hospital Son Llàtzer (40127),,39.57497,2.70107,12376,https://www.tib.org/web/ctm/parades/-/parada/40127,,,,
1420,42001,Pollença 1 (42001),,39.87433,3.017009,12529,https://www.tib.org/web/ctm/parades/-/parada/42001,,,,
1421,42002,Pollença 2 (42002),,39.874317,3.017226,12529,https://www.tib.org/web/ctm/parades/-/parada/42002,,,,
1422,42004,Poliesportiu (42004),,39.8786,3.023257,12529,https://www.tib.org/web/ctm/parades/-/parada/42004,,,,
1423,42005,CEIP Joan Mas (42005),,39.87933,3.0235,12529,https://www.tib.org/web/ctm/parades/-/parada/42005,,,,
1424,42009,La Font 1 (42009),,39.884857,3.022561,12529,https://www.tib.org/web/ctm/parades/-/parada/42009,,,,
1425,42010,Temporal (42010),,39.91863,3.054125,12531,https://www.tib.org/web/ctm/parades/-/parada/42010,,,,
1426,42011,El Vilar 1 (42011),,39.899174,3.057466,12532,https://www.tib.org/web/ctm/parades/-/parada/42011,,,,
1427,42012,El Vilar 2 (42012),,39.89897,3.057195,12532,https://www.tib.org/web/ctm/parades/-/parada/42012,,,,
1428,42013,Gotmar - Las Palmeras 1 (42013),,39.90261,3.068918,12533,https://www.tib.org/web/ctm/parades/-/parada/42013,,,,
1429,42014,Gotmar - Las Palmeras 2 (42014),,39.902428,3.06868,12533,https://www.tib.org/web/ctm/parades/-/parada/42014,,,,
1430,42023,Club del Sol 1 (42023),,39.880016,3.081128,12534,https://www.tib.org/web/ctm/parades/-/parada/42023,,,,
1431,42024,Club del Sol 2 (42024),,39.880276,3.081286,12534,https://www.tib.org/web/ctm/parades/-/parada/42024,,,,
1432,42033,La Font 2 (42033),,39.884693,3.023055,12529,https://www.tib.org/web/ctm/parades/-/parada/42033,,,,
1433,42040,Llenaire 2 (42040),,39.89024,3.074594,12533,https://www.tib.org/web/ctm/parades/-/parada/42040,,,,
1434,42041,Gotmar 1 (42041),,39.89909,3.073782,12533,https://www.tib.org/web/ctm/parades/-/parada/42041,,,,
1435,42042,Gotmar 2 (42042),,39.89893,3.073492,12533,https://www.tib.org/web/ctm/parades/-/parada/42042,,,,
1436,42043,Polígon de Pollença 1 (42043),,39.889072,3.031005,12529,https://www.tib.org/web/ctm/parades/-/parada/42043,,,,
1437,42044,Polígon de Pollença 2 (42044),,39.88884,3.031066,12529,https://www.tib.org/web/ctm/parades/-/parada/42044,,,,
1438,42051,Port de Pollença centre (42051),,39.909157,3.0794957,12533,https://www.tib.org/web/ctm/parades/-/parada/42051,,,,
1439,44008,Crestatx 1 (44008),,39.803593,3.021557,12530,https://www.tib.org/web/ctm/parades/-/parada/44008,,,,
1440,44009,Crestatx 2 (44009),,39.80302,3.021488,12530,https://www.tib.org/web/ctm/parades/-/parada/44009,,,,
1441,44010,Ronda nord 2 (44010),,39.775963,3.022925,12395,https://www.tib.org/web/ctm/parades/-/parada/44010,,,,
1442,44011,Ronda nord 1 (44011),,39.776066,3.022225,12395,https://www.tib.org/web/ctm/parades/-/parada/44011,,,,
1443,47005,Biniali (47005),,39.639236,2.860952,12485,https://www.tib.org/web/ctm/parades/-/parada/47005,,,,
1444,47011,Camí de ses Ànimes (47011),,39.651314,2.91847,12509,https://www.tib.org/web/ctm/parades/-/parada/47011,,,,
1445,47015,Sencelles 1 (47015),,39.647625,2.898113,12513,https://www.tib.org/web/ctm/parades/-/parada/47015,,,,
1446,47017,Camí d'Establiments (47017),,39.650486,2.910661,12509,https://www.tib.org/web/ctm/parades/-/parada/47017,,,,
1447,47018,Sencelles 2 (47018),,39.64492,2.896543,12513,https://www.tib.org/web/ctm/parades/-/parada/47018,,,,
1448,53004,Natura Parc 1 (53004),,39.61251,2.834212,12486,https://www.tib.org/web/ctm/parades/-/parada/53004,,,,
1449,53005,Natura Parc 2 (53005),,39.612362,2.834439,12486,https://www.tib.org/web/ctm/parades/-/parada/53005,,,,
1450,53006,Ses Olleries 1 (53006),,39.61112,2.825572,12487,https://www.tib.org/web/ctm/parades/-/parada/53006,,,,
1451,53007,Ses Olleries 2 (53007),,39.6107,2.825171,12487,https://www.tib.org/web/ctm/parades/-/parada/53007,,,,
1452,53008,Ses Alqueries 2 (53008),,39.63334,2.843176,12488,https://www.tib.org/web/ctm/parades/-/parada/53008,,,,
1453,53017,Camps de vinyes 1 (53017),,39.6368,2.852382,12489,https://www.tib.org/web/ctm/parades/-/parada/53017,,,,
1454,53018,Camps de vinyes 2 (53018),,39.63672,2.852551,12489,https://www.tib.org/web/ctm/parades/-/parada/53018,,,,
1455,53019,Santa Eugènia 1 (53019),,39.62313,2.840792,12490,https://www.tib.org/web/ctm/parades/-/parada/53019,,,,
1456,53020,Santa Eugènia 2 (53020),,39.624058,2.839089,12490,https://www.tib.org/web/ctm/parades/-/parada/53020,,,,
1457,53021,Ses Alqueries 1 (53021),,39.633305,2.8429816,12488,https://www.tib.org/web/ctm/parades/-/parada/53021,,,,
1458,55002,Santa Margalida (55002),,39.70154,3.102108,12535,https://www.tib.org/web/ctm/parades/-/parada/55002,,,,
1464,55017,Can Picafort centre 1 (55017),,39.765743,3.148443,12537,https://www.tib.org/web/ctm/parades/-/parada/55017,,,,
1465,55037,Can Picafort sud 1 (55037),,39.76243,3.1519063,12537,https://www.tib.org/web/ctm/parades/-/parada/55037,,,,
1466,55034,Platja de Can Picafort 1 (55034),,39.770123,3.143845,12537,https://www.tib.org/web/ctm/parades/-/parada/55034,,,,
1467,55035,Platja de Can Picafort 2 (55035),,39.770016,3.143579,12537,https://www.tib.org/web/ctm/parades/-/parada/55035,,,,
1468,55036,Can Picafort centre 2 (55036),,39.7647,3.1491365,12537,https://www.tib.org/web/ctm/parades/-/parada/55036,,,,
1469,55038,Can Picafort sud 2 (55038),,39.762302,3.1516683,12537,https://www.tib.org/web/ctm/parades/-/parada/55038,,,,
1471,58001,Camarata 2 (58001),,39.755463,2.904271,12514,https://www.tib.org/web/ctm/parades/-/parada/58001,,,,
1472,58002,Selva 2 (58002),,39.75168,2.90163,12514,https://www.tib.org/web/ctm/parades/-/parada/58002,,,,
1473,58004,Caimari 1 (58004),,39.768566,2.902215,12515,https://www.tib.org/web/ctm/parades/-/parada/58004,,,,
1474,58006,Biniamar (58006),,39.73187,2.87324,12516,https://www.tib.org/web/ctm/parades/-/parada/58006,,,,
1475,58007,Caimari 2 (58007),,39.76871,2.902373,12515,https://www.tib.org/web/ctm/parades/-/parada/58007,,,,
1476,58010,Camarata 1 (58010),,39.755684,2.904269,12514,https://www.tib.org/web/ctm/parades/-/parada/58010,,,,
1477,58011,Selva 1 (58011),,39.751797,2.901689,12514,https://www.tib.org/web/ctm/parades/-/parada/58011,,,,
1478,58012,Moscari (58012),,39.76503,2.931925,12517,https://www.tib.org/web/ctm/parades/-/parada/58012,,,,
1480,61004,Sóller nord 1 (61004),,39.776966,2.705228,12505,https://www.tib.org/web/ctm/parades/-/parada/61004,,,,
1481,61005,Sóller nord 2 (61005),,39.776608,2.705718,12505,https://www.tib.org/web/ctm/parades/-/parada/61005,,,,
1484,61009,Sóller centre 1 (61009),,39.76741,2.709785,12505,https://www.tib.org/web/ctm/parades/-/parada/61009,,,,
1485,61010,Sóller sud 2 (61010),,39.761658,2.710638,12505,https://www.tib.org/web/ctm/parades/-/parada/61010,,,,
1486,61011,Sóller sud 1 (61011),,39.761814,2.71036,12505,https://www.tib.org/web/ctm/parades/-/parada/61011,,,,
1487,61013,Can Bleda (61013),,39.773117,2.676629,12507,https://www.tib.org/web/ctm/parades/-/parada/61013,,,,
1488,61019,Can Poma 2 (61019),,39.77291,2.669683,12507,https://www.tib.org/web/ctm/parades/-/parada/61019,,,,
1489,61020,Can Poma 1 (61020),,39.772095,2.668653,12507,https://www.tib.org/web/ctm/parades/-/parada/61020,,,,
1490,61027,Port de Sóller (61027),,39.79863,2.700449,12504,https://www.tib.org/web/ctm/parades/-/parada/61027,,,,
1491,61031,Sóller centre 2 (61031),,39.767044,2.7078998,12505,https://www.tib.org/web/ctm/parades/-/parada/61031,,,,
1494,63001,Valldemossa 2 (63001),,39.71005,2.620207,12522,https://www.tib.org/web/ctm/parades/-/parada/63001,,,,
1495,63002,Valldemossa 1 (63002),,39.709984,2.620452,12522,https://www.tib.org/web/ctm/parades/-/parada/63002,,,,
1496,63003,Ermita de la Trinitat 1 (63003),,39.723602,2.605905,12523,https://www.tib.org/web/ctm/parades/-/parada/63003,,,,
1497,63004,Ca Madò Pilla 2 (63004),,39.734024,2.611773,12523,https://www.tib.org/web/ctm/parades/-/parada/63004,,,,
1498,63005,Ca Madò Pilla 1 (63005),,39.735046,2.61255,12523,https://www.tib.org/web/ctm/parades/-/parada/63005,,,,
1522,4008,S'Hostal 2 (4008),,39.567253,2.896124,12421,https://www.tib.org/web/ctm/parades/-/parada/4008,,,,
1523,4009,Ses Malloles 1 (4009),,39.57011,2.850471,12594,https://www.tib.org/web/ctm/parades/-/parada/4009,,,,
1524,4010,Ses Malloles 2 (4010),,39.56896,2.850621,12594,https://www.tib.org/web/ctm/parades/-/parada/4010,,,,
1525,4015,S'Hostal 1 (4015),,39.56746,2.895478,12421,https://www.tib.org/web/ctm/parades/-/parada/4015,,,,
1526,4017,Pina 1 (4017),,39.597553,2.9236565,12595,https://www.tib.org/web/ctm/parades/-/parada/4017,,,,
1527,4018,Pina 2 (4018),,39.5978,2.924219,12595,https://www.tib.org/web/ctm/parades/-/parada/4018,,,,
1528,13003,Av. Miramar 2 (13003),,39.364143,2.9397554,12597,https://www.tib.org/web/ctm/parades/-/parada/13003,,,,
1529,13004,Av. Miramar 1 (13004),,39.36432,2.9393668,12597,https://www.tib.org/web/ctm/parades/-/parada/13004,,,,
1530,13005,Club Nàutic sa Ràpita 2 (13005),,39.36375,2.954064,12597,https://www.tib.org/web/ctm/parades/-/parada/13005,,,,
1531,13006,Club Nàutic sa Ràpita 1 (13006),,39.364,2.954373,12597,https://www.tib.org/web/ctm/parades/-/parada/13006,,,,
1532,13007,La Verge 1 (13007),,39.43264,3.023176,12601,https://www.tib.org/web/ctm/parades/-/parada/13007,,,,
1533,13008,La Verge 2 (13008),,39.432964,3.022758,12601,https://www.tib.org/web/ctm/parades/-/parada/13008,,,,
1534,13009,Campos oest 1 (13009),,39.43669,3.015501,12601,https://www.tib.org/web/ctm/parades/-/parada/13009,,,,
1535,13010,Campos oest 2 (13010),,39.436695,3.014845,12601,https://www.tib.org/web/ctm/parades/-/parada/13010,,,,
1536,14003,Capdepera oest (14003),,39.70033,3.427087,12602,https://www.tib.org/web/ctm/parades/-/parada/14003,,,,
1537,14011,Son Moll (14011),,39.70619,3.455955,12603,https://www.tib.org/web/ctm/parades/-/parada/14011,,,,
1539,14027,Capdepera est 2 (14027),,39.70371,3.445015,12602,https://www.tib.org/web/ctm/parades/-/parada/14027,,,,
1540,14028,Capdepera est 1 (14028),,39.70385,3.444775,12602,https://www.tib.org/web/ctm/parades/-/parada/14028,,,,
1541,14032,Cala Rajada centre (14032),,39.71138,3.459087,12603,https://www.tib.org/web/ctm/parades/-/parada/14032,,,,
1542,14033,Capdepera centre 1 (14033),,39.70173,3.432717,12602,https://www.tib.org/web/ctm/parades/-/parada/14033,,,,
1543,14034,Magallanes (14034),,39.709473,3.457259,12603,https://www.tib.org/web/ctm/parades/-/parada/14034,,,,
1545,14036,Cala Agulla 1 (14036),,39.715015,3.457174,12603,https://www.tib.org/web/ctm/parades/-/parada/14036,,,,
1547,22010,Es Corso (22010),,39.415123,3.25961,12606,https://www.tib.org/web/ctm/parades/-/parada/22010,,,,
1549,22037,Moll (22037),,39.42136,3.261583,12606,https://www.tib.org/web/ctm/parades/-/parada/22037,,,,
1551,22035,Ronda Nadal Batle (22035),,39.42371,3.259934,12606,https://www.tib.org/web/ctm/parades/-/parada/22035,,,,
1552,22036,Gravina (22036),,39.417812,3.257138,12606,https://www.tib.org/web/ctm/parades/-/parada/22036,,,,
1553,22024,Polígon de Felanitx 2 (22024),,39.465557,3.138036,12424,https://www.tib.org/web/ctm/parades/-/parada/22024,,,,
1554,22025,Polígon de Felanitx 1 (22025),,39.465805,3.138482,12424,https://www.tib.org/web/ctm/parades/-/parada/22025,,,,
1555,22034,S'Horta 1 (22034),,39.407898,3.207165,12610,https://www.tib.org/web/ctm/parades/-/parada/22034,,,,
1556,22039,Ernest Mestre 1 (22039),,39.46951,3.144517,12424,https://www.tib.org/web/ctm/parades/-/parada/22039,,,,
1557,22044,Cas Concos (22044),,39.41848,3.140303,12620,https://www.tib.org/web/ctm/parades/-/parada/22044,,,,
1558,22043,Es Carritxó 2 (22043),,39.4247,3.165325,12621,https://www.tib.org/web/ctm/parades/-/parada/22043,,,,
1559,22042,Es Carritxó 1 (22042),,39.4247,3.165434,12621,https://www.tib.org/web/ctm/parades/-/parada/22042,,,,
1560,22041,Cristòfol Colom (22041),,39.423706,3.260507,12606,https://www.tib.org/web/ctm/parades/-/parada/22041,,,,
1561,22020,Cala Ferrera-Cala Serena (22020),,39.383602,3.238393,12611,https://www.tib.org/web/ctm/parades/-/parada/22020,,,,
1562,28001,Lloret 1 (28001),,39.61744,2.97533,12623,https://www.tib.org/web/ctm/parades/-/parada/28001,,,,
1563,28002,Sa Comuna 1 (28002),,39.61205,2.967813,12623,https://www.tib.org/web/ctm/parades/-/parada/28002,,,,
1564,28003,Sa Comuna 2 (28003),,39.611916,2.967964,12623,https://www.tib.org/web/ctm/parades/-/parada/28003,,,,
1565,31121,Av. Europa 1 (31121),,39.49567,2.756033,12625,https://www.tib.org/web/ctm/parades/-/parada/31121,,,,
1566,31122,S'Arenal (31122),,39.498383,2.754463,12625,https://www.tib.org/web/ctm/parades/-/parada/31122,,,,
1568,31050,Cala Pi (31050),,39.363857,2.838247,12598,https://www.tib.org/web/ctm/parades/-/parada/31050,,,,
1569,31051,S'Estanyol 2 (31051),,39.36172,2.917321,12599,https://www.tib.org/web/ctm/parades/-/parada/31051,,,,
1570,31052,S'Estanyol 1 (31052),,39.36191,2.917359,12599,https://www.tib.org/web/ctm/parades/-/parada/31052,,,,
1571,31053,Son Bieló 2 (31053),,39.363056,2.926595,12600,https://www.tib.org/web/ctm/parades/-/parada/31053,,,,
1572,31054,Son Bieló 1 (31054),,39.363163,2.926621,12600,https://www.tib.org/web/ctm/parades/-/parada/31054,,,,
1573,31055,Llucmajor est 2 (31055),,39.48856,2.898624,12627,https://www.tib.org/web/ctm/parades/-/parada/31055,,,,
1574,31056,Llucmajor est 1 (31056),,39.488796,2.898646,12627,https://www.tib.org/web/ctm/parades/-/parada/31056,,,,
1575,31057,Llucmajor centre 1 (31057),,39.486034,2.890716,12627,https://www.tib.org/web/ctm/parades/-/parada/31057,,,,
1576,31058,Llucmajor centre 2 (31058),,39.485897,2.890553,12627,https://www.tib.org/web/ctm/parades/-/parada/31058,,,,
1577,31061,Polígon Son Noguera (31061),,39.482407,2.850642,12627,https://www.tib.org/web/ctm/parades/-/parada/31061,,,,
1578,31062,Llucmajor oest 2 (31062),,39.486897,2.88346,12627,https://www.tib.org/web/ctm/parades/-/parada/31062,,,,
1579,31063,Llucmajor oest 1 (31063),,39.48705,2.88342,12627,https://www.tib.org/web/ctm/parades/-/parada/31063,,,,
1580,31112,Badia Gran 1 (31112),,39.427673,2.753421,12628,https://www.tib.org/web/ctm/parades/-/parada/31112,,,,
1581,31111,Badia Gran 2 (31111),,39.427345,2.7533226,12628,https://www.tib.org/web/ctm/parades/-/parada/31111,,,,
1582,31114,Badia Blava 1 (31114),,39.43424,2.752863,12629,https://www.tib.org/web/ctm/parades/-/parada/31114,,,,
1583,31113,Badia Blava 2 (31113),,39.434246,2.7526958,12629,https://www.tib.org/web/ctm/parades/-/parada/31113,,,,
1584,31079,Sa Torre 1 (31079),,39.442654,2.757795,12630,https://www.tib.org/web/ctm/parades/-/parada/31079,,,,
1585,31115,Sa Torre 2 (31115),,39.442474,2.758062,12630,https://www.tib.org/web/ctm/parades/-/parada/31115,,,,
1586,31116,Mirador de sa Torre 1 (31116),,39.440933,2.7517784,12630,https://www.tib.org/web/ctm/parades/-/parada/31116,,,,
1587,31117,Mirador de sa Torre 2 (31117),,39.440697,2.7518115,12630,https://www.tib.org/web/ctm/parades/-/parada/31117,,,,
1588,31083,Santa Maria 1 (31083),,39.444763,2.749892,12630,https://www.tib.org/web/ctm/parades/-/parada/31083,,,,
1589,31118,Santa Maria 2 (31118),,39.44472,2.7494256,12630,https://www.tib.org/web/ctm/parades/-/parada/31118,,,,
1590,31120,Maioris Decima 1 (31120),,39.453026,2.752429,12631,https://www.tib.org/web/ctm/parades/-/parada/31120,,,,
1591,31119,Maioris Decima 2 (31119),,39.453003,2.7522793,12631,https://www.tib.org/web/ctm/parades/-/parada/31119,,,,
1592,31095,Puigderrós 1 (31095),,39.448483,2.7530913,12632,https://www.tib.org/web/ctm/parades/-/parada/31095,,,,
1593,31096,Puigderrós 2 (31096),,39.448444,2.752895,12632,https://www.tib.org/web/ctm/parades/-/parada/31096,,,,
1594,31100,Baladre 2 (31100),,39.49215,2.745757,12626,https://www.tib.org/web/ctm/parades/-/parada/31100,,,,
1596,31110,Tolleric 1 (31110),,39.419,2.7483754,12633,https://www.tib.org/web/ctm/parades/-/parada/31110,,,,
1597,31109,Tolleric 2 (31109),,39.41911,2.748214,12633,https://www.tib.org/web/ctm/parades/-/parada/31109,,,,
1598,31108,Les Palmeres (31108),,39.47273,2.753076,12634,https://www.tib.org/web/ctm/parades/-/parada/31108,,,,
1599,33004,Sa Mora (33004),,39.57063,3.203656,12398,https://www.tib.org/web/ctm/parades/-/parada/33004,,,,
1600,33008,Rambla Rei en Jaume (33008),,39.564274,3.215789,12398,https://www.tib.org/web/ctm/parades/-/parada/33008,,,,
1601,33080,Av. Parc 1 (33080),,39.57202,3.21814,12398,https://www.tib.org/web/ctm/parades/-/parada/33080,,,,
1602,33081,Av. Parc 2 (33081),,39.57069,3.21855,12398,https://www.tib.org/web/ctm/parades/-/parada/33081,,,,
1608,33025,Carrer Cala Antena (33025),,39.46825,3.274836,12607,https://www.tib.org/web/ctm/parades/-/parada/33025,,,,
1609,33069,Platja de Cala Antena 2 (33069),,39.47018,3.274242,12607,https://www.tib.org/web/ctm/parades/-/parada/33069,,,,
1610,33070,Platja de Cala Antena 1 (33070),,39.470543,3.274426,12607,https://www.tib.org/web/ctm/parades/-/parada/33070,,,,
1611,33071,Passeig Manacor (33071),,39.465866,3.278552,12607,https://www.tib.org/web/ctm/parades/-/parada/33071,,,,
1612,33072,Cala Domingos (33072),,39.462337,3.277824,12607,https://www.tib.org/web/ctm/parades/-/parada/33072,,,,
1613,33033,Via Europa (33033),,39.454224,3.271336,12608,https://www.tib.org/web/ctm/parades/-/parada/33033,,,,
1614,33075,Platja de Cala Murada (33075),,39.451836,3.275829,12608,https://www.tib.org/web/ctm/parades/-/parada/33075,,,,
1615,33076,Occitània - Lorena (33076),,39.449,3.267504,12608,https://www.tib.org/web/ctm/parades/-/parada/33076,,,,
1616,33077,Occitània - Baviera (33077),,39.45187,3.262178,12608,https://www.tib.org/web/ctm/parades/-/parada/33077,,,,
1617,33034,Son Macià 2 (33034),,39.514156,3.21561,12622,https://www.tib.org/web/ctm/parades/-/parada/33034,,,,
1618,33065,Son Macià 1 (33065),,39.51419,3.215559,12622,https://www.tib.org/web/ctm/parades/-/parada/33065,,,,
1625,33044,Estació de tren 1 (33044),,39.57079,3.203392,12398,https://www.tib.org/web/ctm/parades/-/parada/33044,,,,
1626,33046,Dinosaurland - Coves Hams (33046),,39.548195,3.321977,12635,https://www.tib.org/web/ctm/parades/-/parada/33046,,,,
1629,33053,Ctra. Son Servera 1 (33053),,39.54525,3.338496,12635,https://www.tib.org/web/ctm/parades/-/parada/33053,,,,
1632,33059,Molí - Hospital 2 (33059),,39.57565,3.207242,12398,https://www.tib.org/web/ctm/parades/-/parada/33059,,,,
1633,33060,Molí - Hospital 1 (33060),,39.575817,3.20743,12398,https://www.tib.org/web/ctm/parades/-/parada/33060,,,,
1635,33073,Alcanada - Espalmador (33073),,39.46711,3.270664,12607,https://www.tib.org/web/ctm/parades/-/parada/33073,,,,
1636,33063,Mossèn Alcover (33063),,39.562943,3.208095,12398,https://www.tib.org/web/ctm/parades/-/parada/33063,,,,
1638,33078,Mestral 1 (33078),,39.545532,3.331616,12635,https://www.tib.org/web/ctm/parades/-/parada/33078,,,,
1639,33079,Mestral 2 (33079),,39.54565,3.332182,12635,https://www.tib.org/web/ctm/parades/-/parada/33079,,,,
1640,33054,Ctra. Son Servera 2 (33054),,39.54554,3.338761,12635,https://www.tib.org/web/ctm/parades/-/parada/33054,,,,
1641,33067,S'Illot 1 (33067),,39.5644,3.370815,12638,https://www.tib.org/web/ctm/parades/-/parada/33067,,,,
1642,33068,S'Illot 2 (33068),,39.564537,3.37084,12638,https://www.tib.org/web/ctm/parades/-/parada/33068,,,,
1644,38003,Montuïri 1 (38003),,39.56295,2.977531,12422,https://www.tib.org/web/ctm/parades/-/parada/38003,,,,
1645,38010,Montuïri 2 (38010),,39.56274,2.977627,12422,https://www.tib.org/web/ctm/parades/-/parada/38010,,,,
1646,40002,Porta des Camp 2 (40002),,39.566387,2.65652,12376,https://www.tib.org/web/ctm/parades/-/parada/40002,,,,
1649,40108,Porta des Camp 1 (40108),,39.566414,2.656928,12376,https://www.tib.org/web/ctm/parades/-/parada/40108,,,,
1650,40109,Son Gual (40109),,39.568005,2.835065,12596,https://www.tib.org/web/ctm/parades/-/parada/40109,,,,
1652,41005,Ariany (41005),,39.64895,3.111932,12648,https://www.tib.org/web/ctm/parades/-/parada/41005,,,,
1656,51001,Savines 2 (51001),,39.571552,3.373322,12639,https://www.tib.org/web/ctm/parades/-/parada/51001,,,,
1657,51002,Savines 1 (51002),,39.571747,3.373289,12639,https://www.tib.org/web/ctm/parades/-/parada/51002,,,,
1660,51005,Palmeres 2 (51005),,39.578773,3.376129,12639,https://www.tib.org/web/ctm/parades/-/parada/51005,,,,
1661,51006,Palmeres 1 (51006),,39.577778,3.376511,12639,https://www.tib.org/web/ctm/parades/-/parada/51006,,,,
1665,51014,Estanyol (51014),,39.590336,3.381725,12640,https://www.tib.org/web/ctm/parades/-/parada/51014,,,,
1667,51016,Av. Llevant 1 (51016),,39.595367,3.380234,12640,https://www.tib.org/web/ctm/parades/-/parada/51016,,,,
1668,51017,Av. Llevant 2 (51017),,39.595554,3.380225,12640,https://www.tib.org/web/ctm/parades/-/parada/51017,,,,
1670,51019,Bon Temps 1 (51019),,39.597733,3.381039,12640,https://www.tib.org/web/ctm/parades/-/parada/51019,,,,
1671,51020,Bon Temps 2 (51020),,39.598053,3.381395,12640,https://www.tib.org/web/ctm/parades/-/parada/51020,,,,
1674,51023,Sant Llorenç 1 (51023),,39.608532,3.284332,12641,https://www.tib.org/web/ctm/parades/-/parada/51023,,,,
1676,51025,Sant Llorenç nord 2 (51025),,39.614414,3.288369,12641,https://www.tib.org/web/ctm/parades/-/parada/51025,,,,
1678,51027,Sant Llorenç nord 1 (51027),,39.6148,3.288822,12641,https://www.tib.org/web/ctm/parades/-/parada/51027,,,,
1679,51028,Sant Llorenç 2 (51028),,39.608498,3.28528,12641,https://www.tib.org/web/ctm/parades/-/parada/51028,,,,
1680,51029,Son Carrió (51029),,39.58635,3.321966,12642,https://www.tib.org/web/ctm/parades/-/parada/51029,,,,
1681,57001,S'Alqueria Blanca 2 (57001),,39.387447,3.164725,12612,https://www.tib.org/web/ctm/parades/-/parada/57001,,,,
1682,57002,S'Alqueria Blanca 1 (57002),,39.38752,3.164762,12612,https://www.tib.org/web/ctm/parades/-/parada/57002,,,,
1685,57009,Marina de Cala d'Or 1 (57009),,39.370525,3.219357,12611,https://www.tib.org/web/ctm/parades/-/parada/57009,,,,
1686,57010,Marina de Cala d'Or 2 (57010),,39.37057,3.219687,12611,https://www.tib.org/web/ctm/parades/-/parada/57010,,,,
1687,57048,Cala Egos (57048),,39.363506,3.224149,12611,https://www.tib.org/web/ctm/parades/-/parada/57048,,,,
1688,57017,Cala Esmeralda (57017),,39.378197,3.237003,12611,https://www.tib.org/web/ctm/parades/-/parada/57017,,,,
1689,57049,Av. Calonge 1 (57049),,39.37538,3.226837,12611,https://www.tib.org/web/ctm/parades/-/parada/57049,,,,
1690,57050,Av. Calonge 2 (57050),,39.375618,3.227126,12611,https://www.tib.org/web/ctm/parades/-/parada/57050,,,,
1693,57028,Cala Santanyí (57028),,39.3312,3.145362,12616,https://www.tib.org/web/ctm/parades/-/parada/57028,,,,
1694,57029,Cala Figuera (57029),,39.330013,3.168131,12617,https://www.tib.org/web/ctm/parades/-/parada/57029,,,,
1695,57030,Es Llombards 1 (57030),,39.340984,3.097269,12649,https://www.tib.org/web/ctm/parades/-/parada/57030,,,,
1696,57031,Es Llombards 2 (57031),,39.340916,3.097439,12649,https://www.tib.org/web/ctm/parades/-/parada/57031,,,,
1698,57041,Na Ravandella 2 (57041),,39.35909,3.127479,12650,https://www.tib.org/web/ctm/parades/-/parada/57041,,,,
1699,57042,Na Ravandella 1 (57042),,39.35859,3.127532,12650,https://www.tib.org/web/ctm/parades/-/parada/57042,,,,
1700,57056,Cas Canonge 2 (57056),,39.351307,3.123042,12650,https://www.tib.org/web/ctm/parades/-/parada/57056,,,,
1701,57057,Cas Canonge 1 (57057),,39.351646,3.122853,12650,https://www.tib.org/web/ctm/parades/-/parada/57057,,,,
1703,57051,Portopetro 1 (57051),,39.364708,3.209858,12619,https://www.tib.org/web/ctm/parades/-/parada/57051,,,,
1704,57052,Portopetro 2 (57052),,39.36463,3.209755,12619,https://www.tib.org/web/ctm/parades/-/parada/57052,,,,
1705,59001,Ses Creus 2 (59001),,39.340782,3.057809,12651,https://www.tib.org/web/ctm/parades/-/parada/59001,,,,
1706,59002,Ses Creus 1 (59002),,39.34087,3.057731,12651,https://www.tib.org/web/ctm/parades/-/parada/59002,,,,
1708,59006,Primavera (59006),,39.321636,2.989877,12652,https://www.tib.org/web/ctm/parades/-/parada/59006,,,,
1709,59008,Plaça Constitució (59008),,39.31685,2.99287,12652,https://www.tib.org/web/ctm/parades/-/parada/59008,,,,
1711,59011,Maria Antònia Salvà 1 (59011),,39.338726,3.050183,12651,https://www.tib.org/web/ctm/parades/-/parada/59011,,,,
1712,59012,Maria Antònia Salvà 2 (59012),,39.338673,3.050319,12651,https://www.tib.org/web/ctm/parades/-/parada/59012,,,,
1713,60005,Estació Sineu (60005),,39.64316,3.014603,12396,https://www.tib.org/web/ctm/parades/-/parada/60005,,,,
1714,62004,Plaça Mallorca 1 (62004),,39.601604,3.381456,12640,https://www.tib.org/web/ctm/parades/-/parada/62004,,,,
1715,62005,Na Llambies (62005),,39.60631,3.387334,12640,https://www.tib.org/web/ctm/parades/-/parada/62005,,,,
1716,62006,Platja de Cala Bona 2 (62006),,39.609104,3.389453,12643,https://www.tib.org/web/ctm/parades/-/parada/62006,,,,
1719,62009,Port esportiu 2 (62009),,39.614525,3.390158,12643,https://www.tib.org/web/ctm/parades/-/parada/62009,,,,
1720,62010,Port esportiu 1 (62010),,39.614517,3.390048,12643,https://www.tib.org/web/ctm/parades/-/parada/62010,,,,
1723,62017,Sa Marjal 1 (62017),,39.63609,3.403432,12644,https://www.tib.org/web/ctm/parades/-/parada/62017,,,,
1724,62018,Sa Marjal 2 (62018),,39.635963,3.403524,12644,https://www.tib.org/web/ctm/parades/-/parada/62018,,,,
1725,62019,Costa dels Pins (62019),,39.638195,3.413347,12644,https://www.tib.org/web/ctm/parades/-/parada/62019,,,,
1726,62020,Son Servera sud 1 (62020),,39.619183,3.363718,12645,https://www.tib.org/web/ctm/parades/-/parada/62020,,,,
1727,62021,Son Servera sud 2 (62021),,39.620018,3.362128,12645,https://www.tib.org/web/ctm/parades/-/parada/62021,,,,
1728,62024,Platja de Cala Bona 1 (62024),,39.610756,3.38821,12643,https://www.tib.org/web/ctm/parades/-/parada/62024,,,,
1729,62025,Davant s'Hort (62025),,39.60712,3.384825,12640,https://www.tib.org/web/ctm/parades/-/parada/62025,,,,
1730,62026,Port Nou 1 (62026),,39.62969,3.396846,12646,https://www.tib.org/web/ctm/parades/-/parada/62026,,,,
1731,62027,Port Nou 2 (62027),,39.630337,3.397287,12646,https://www.tib.org/web/ctm/parades/-/parada/62027,,,,
1732,62028,Cala Bona nord 1 (62028),,39.62215,3.391427,12643,https://www.tib.org/web/ctm/parades/-/parada/62028,,,,
1733,62029,Cala Bona nord 2 (62029),,39.621925,3.391454,12643,https://www.tib.org/web/ctm/parades/-/parada/62029,,,,
1734,62031,Son Servera nord 1 (62031),,39.62334,3.360131,12645,https://www.tib.org/web/ctm/parades/-/parada/62031,,,,
1735,62034,Son Servera nord 2 (62034),,39.62354,3.359076,12645,https://www.tib.org/web/ctm/parades/-/parada/62034,,,,
1736,62041,Plaça Mallorca 2 (62041),,39.602055,3.382145,12640,https://www.tib.org/web/ctm/parades/-/parada/62041,,,,
1739,65001,Vilafranca 2 (65001),,39.569023,3.087814,12653,https://www.tib.org/web/ctm/parades/-/parada/65001,,,,
1740,65002,Vilafranca 1 (65002),,39.5692,3.08779,12653,https://www.tib.org/web/ctm/parades/-/parada/65002,,,,
1741,9001,Búger (9001),,39.758156,2.983419,12654,https://www.tib.org/web/ctm/parades/-/parada/9001,,,,
1742,9002,Menestralia (9002),,39.763588,2.968999,132,https://www.tib.org/web/ctm/parades/-/parada/9002,,,,
1743,42034,Cala Barques (42034),,39.920376,3.053903,12531,https://www.tib.org/web/ctm/parades/-/parada/42034,,,,
1745,55042,Talaiot de sa Nineta (55042),,39.73617,3.218887,12536,https://www.tib.org/web/ctm/parades/-/parada/55042,,,,
1746,63009,Son Maixella 1 (63009),,39.668083,2.641181,12655,https://www.tib.org/web/ctm/parades/-/parada/63009,,,,
1747,63010,Son Maixella 2 (63010),,39.66808,2.641298,12655,https://www.tib.org/web/ctm/parades/-/parada/63010,,,,
1753,11182,Puig de sa Morisca (11182),,39.509724,2.483707,12445,https://www.tib.org/web/ctm/parades/-/parada/11182,,,,
1755,57053,Calonge 1 (57053),,39.402138,3.203045,12613,https://www.tib.org/web/ctm/parades/-/parada/57053,,,,
1756,57054,Calonge 2 (57054),,39.401806,3.203154,12613,https://www.tib.org/web/ctm/parades/-/parada/57054,,,,
1778,11183,Talaia (11183),,39.54187,2.447133,12453,https://www.tib.org/web/ctm/parades/-/parada/11183,,,,
1781,42055,Can Singala 2 (42055),,39.91296,3.098743,12533,https://www.tib.org/web/ctm/parades/-/parada/42055,,,,
1795,33084,Molí - Hospital 3 (33084),,39.57558,3.207639,12398,https://www.tib.org/web/ctm/parades/-/parada/33084,,,,
1799,11187,Dolors Nouvilas (11187),,39.53955,2.561373,12436,https://www.tib.org/web/ctm/parades/-/parada/11187,,,,
1806,10046,Raixa 1 (10046),,39.67572,2.67927,12405,https://www.tib.org/web/ctm/parades/-/parada/10046,,,,
1807,42059,Llenaire 1 (42059),,39.891468,3.073865,12533,https://www.tib.org/web/ctm/parades/-/parada/42059,,,,
37649,40134,Argentina - Sa Feixina 1 (40134),,39.570217,2.63961,12376,https://www.tib.org/web/ctm/parades/-/parada/40134,,,,
37650,40135,Argentina - Sa Feixina 2 (40135),,39.570953,2.639675,12376,https://www.tib.org/web/ctm/parades/-/parada/40135,,,,
1810,40144,Hospital Son Espases (40144),,39.605183,2.646513,12376,https://www.tib.org/web/ctm/parades/-/parada/40144,,,,
1812,36105,Pla de na Tesa sud 2 (36105),,39.592808,2.711651,12673,https://www.tib.org/web/ctm/parades/-/parada/36105,,,,
1813,36106,Pla de na Tesa sud 1 (36106),,39.594067,2.710844,12673,https://www.tib.org/web/ctm/parades/-/parada/36106,,,,
37653,40128,Aeroport - Sortides (40128),,39.547745,2.730366,12665,https://www.tib.org/web/ctm/parades/-/parada/40128,,,,
1814,40145,Polígon Can Valero 1 (40145),,39.597816,2.627409,12376,https://www.tib.org/web/ctm/parades/-/parada/40145,,,,
37654,40129,Aeroport - Arribades (40129),,39.547504,2.728573,12665,https://www.tib.org/web/ctm/parades/-/parada/40129,,,,
1815,40146,Polígon Can Valero 2 (40146),,39.597855,2.627619,12376,https://www.tib.org/web/ctm/parades/-/parada/40146,,,,
37655,36097,Pont d'Inca Nou 1 (36097),,39.60387,2.70175,12380,https://www.tib.org/web/ctm/parades/-/parada/36097,,,,
1817,36107,TIRME - Can Garriga (36107),,39.637154,2.676337,79,https://www.tib.org/web/ctm/parades/-/parada/36107,,,,
1818,11189,Cala Vinyes 2 (11189),,39.49746,2.529319,12441,https://www.tib.org/web/ctm/parades/-/parada/11189,,,,
1820,51030,Mare Selva 1 (51030),,39.58639,3.375396,12639,https://www.tib.org/web/ctm/parades/-/parada/51030,,,,
1821,51031,Mare Selva 2 (51031),,39.5867,3.375763,12639,https://www.tib.org/web/ctm/parades/-/parada/51031,,,,
1822,36108,Son Caulelles (36108),,39.614994,2.762862,12417,https://www.tib.org/web/ctm/parades/-/parada/36108,,,,
1823,31128,Dragonera 1 (31128),,39.49925,2.758365,12625,https://www.tib.org/web/ctm/parades/-/parada/31128,,,,
1824,31129,Dragonera 2 (31129),,39.50089,2.7585,12625,https://www.tib.org/web/ctm/parades/-/parada/31129,,,,
1825,31130,Av. Europa 2 (31130),,39.496513,2.755552,12625,https://www.tib.org/web/ctm/parades/-/parada/31130,,,,
1826,55043,Son Bauló (55043),,39.75813,3.160529,12537,https://www.tib.org/web/ctm/parades/-/parada/55043,,,,
1827,5036,S'Arracó (5036),,39.57799,2.389804,12428,https://www.tib.org/web/ctm/parades/-/parada/5036,,,,
1828,13026,Escorball (13026),,39.36476,2.942208,12597,https://www.tib.org/web/ctm/parades/-/parada/13026,,,,
1831,10047,Son Amar 1 (10047),,39.65822,2.67281,12403,https://www.tib.org/web/ctm/parades/-/parada/10047,,,,
1832,10048,Son Amar 2 (10048),,39.65814,2.672973,12403,https://www.tib.org/web/ctm/parades/-/parada/10048,,,,
1833,51033,Sant Llorenç sud 1 (51033),,39.61023,3.282605,12641,https://www.tib.org/web/ctm/parades/-/parada/51033,,,,
1834,51034,Sant Llorenç sud 2 (51034),,39.60991,3.282375,12641,https://www.tib.org/web/ctm/parades/-/parada/51034,,,,
1835,4019,Randa (4019),,39.526447,2.9142902,115,https://www.tib.org/web/ctm/parades/-/parada/4019,,,,
37676,17007,Costitx 1 (17007),,39.656128,2.950532,12511,https://www.tib.org/web/ctm/parades/-/parada/17007,,,,
37678,40138,FAN Centre comercial 1 (40138),,39.55497,2.705601,12376,https://www.tib.org/web/ctm/parades/-/parada/40138,,,,
37680,40139,FAN Centre comercial 2 (40139),,39.555363,2.705789,12376,https://www.tib.org/web/ctm/parades/-/parada/40139,,,,
1841,59013,Marquès del Palmer (59013),,39.31938,2.998326,12652,https://www.tib.org/web/ctm/parades/-/parada/59013,,,,
1842,49005,Sant Joan 2 (49005),,39.59346,3.038095,12624,https://www.tib.org/web/ctm/parades/-/parada/49005,,,,
37682,57055,Son Moja (57055),,39.336815,3.139167,12618,https://www.tib.org/web/ctm/parades/-/parada/57055,,,,
1843,49004,Sant Joan 1 (49004),,39.593132,3.037665,12624,https://www.tib.org/web/ctm/parades/-/parada/49004,,,,
1844,28004,Lloret 2 (28004),,39.617306,2.975368,12623,https://www.tib.org/web/ctm/parades/-/parada/28004,,,,
1845,4020,Ses Escoles 1 (4020),,39.563076,2.896522,12421,https://www.tib.org/web/ctm/parades/-/parada/4020,,,,
37685,57059,Sa Tanca 1 (57059),,39.351406,3.132145,12650,https://www.tib.org/web/ctm/parades/-/parada/57059,,,,
1846,31131,El Dorado (31131),,39.4179,2.744441,12633,https://www.tib.org/web/ctm/parades/-/parada/31131,,,,
37686,57058,Sa Tanca 2 (57058),,39.35087,3.131689,12650,https://www.tib.org/web/ctm/parades/-/parada/57058,,,,
1847,39042,Santa Anna (39042),,39.733185,3.050847,12394,https://www.tib.org/web/ctm/parades/-/parada/39042,,,,
37689,63011,Ermita de la Trinitat 2 (63011),,39.720943,2.606635,12523,https://www.tib.org/web/ctm/parades/-/parada/63011,,,,
1849,225,Constància - Hospital d'Inca Estació (225),,39.7148,2.914743,12391,https://www.tib.org/web/ctm/parades/-/parada/225,,,,
37690,11185,Margalides (11185),,39.493996,2.530112,12441,https://www.tib.org/web/ctm/parades/-/parada/11185,,,,
37691,40140,Son Ferriol 1 (40140),,39.57151,2.712869,12527,https://www.tib.org/web/ctm/parades/-/parada/40140,,,,
1851,35003,Maria de la Salut 2 (35003),,39.668034,3.075683,12647,https://www.tib.org/web/ctm/parades/-/parada/35003,,,,
37692,40141,Son Ferriol 2 (40141),,39.571415,2.712571,12527,https://www.tib.org/web/ctm/parades/-/parada/40141,,,,
37693,11186,Galatzó (11186),,39.524185,2.497673,12447,https://www.tib.org/web/ctm/parades/-/parada/11186,,,,
37694,40142,Aragó-Can Capes 1 (40142),,39.58267,2.668557,12376,https://www.tib.org/web/ctm/parades/-/parada/40142,,,,
37695,40143,Aragó-Can Capes 2 (40143),,39.582623,2.668783,12376,https://www.tib.org/web/ctm/parades/-/parada/40143,,,,
1855,33085,Joan Miró (33085),,39.561947,3.207303,12398,https://www.tib.org/web/ctm/parades/-/parada/33085,,,,
37696,11184,Ronda (11184),,39.54111,2.457144,12453,https://www.tib.org/web/ctm/parades/-/parada/11184,,,,
1856,27019,Hospital d'Inca 1 (27019),,39.716755,2.921939,12391,https://www.tib.org/web/ctm/parades/-/parada/27019,,,,
37697,27017,Sant Joan de Déu 2 (27017),,39.721245,2.918359,12391,https://www.tib.org/web/ctm/parades/-/parada/27017,,,,
37698,27018,Sant Joan de Déu 1 (27018),,39.721165,2.917911,12391,https://www.tib.org/web/ctm/parades/-/parada/27018,,,,
1859,20021,Canet 1 (20021),,39.65469,2.640761,12463,https://www.tib.org/web/ctm/parades/-/parada/20021,,,,
1860,20022,Canet 2 (20022),,39.65474,2.640868,12463,https://www.tib.org/web/ctm/parades/-/parada/20022,,,,
1861,14043,Capdepera centre 2 (14043),,39.70311,3.429786,12602,https://www.tib.org/web/ctm/parades/-/parada/14043,,,,
37702,31124,Baladre 1 (31124),,39.49211,2.745613,12626,https://www.tib.org/web/ctm/parades/-/parada/31124,,,,
1863,27020,Inca nord 2 (27020),,39.726566,2.922775,12391,https://www.tib.org/web/ctm/parades/-/parada/27020,,,,
37703,31125,Cedre 1 (31125),,39.489063,2.741825,12626,https://www.tib.org/web/ctm/parades/-/parada/31125,,,,
1868,13028,Campos sud 2 (13028),,39.427116,3.017786,12601,https://www.tib.org/web/ctm/parades/-/parada/13028,,,,
37709,31127,Cala Blava (31127),,39.482376,2.738556,12671,https://www.tib.org/web/ctm/parades/-/parada/31127,,,,
1869,13027,Campos sud 1 (13027),,39.427185,3.0182,12601,https://www.tib.org/web/ctm/parades/-/parada/13027,,,,
37710,31126,Cedre 2 (31126),,39.488873,2.741554,12626,https://www.tib.org/web/ctm/parades/-/parada/31126,,,,
37711,40136,Son Ferriol - Segon Cinturó 1 (40136),,39.579533,2.710259,12376,https://www.tib.org/web/ctm/parades/-/parada/40136,,,,
37712,40137,Son Ferriol - Segon Cinturó 2 (40137),,39.578217,2.710598,12376,https://www.tib.org/web/ctm/parades/-/parada/40137,,,,
37713,36103,Pla de na Tesa centre 2 (36103),,39.597572,2.708187,12673,https://www.tib.org/web/ctm/parades/-/parada/36103,,,,
1874,10049,Urb. sa Coma 1 (10049),,39.674522,2.68741,12415,https://www.tib.org/web/ctm/parades/-/parada/10049,,,,
37714,36104,Pla de na Tesa centre 1 (36104),,39.597675,2.708214,12673,https://www.tib.org/web/ctm/parades/-/parada/36104,,,,
1875,10050,Urb. sa Coma 2 (10050),,39.67445,2.68733,12415,https://www.tib.org/web/ctm/parades/-/parada/10050,,,,
37715,36098,Pont d'Inca Nou 2 (36098),,39.60382,2.701992,12380,https://www.tib.org/web/ctm/parades/-/parada/36098,,,,
1876,11190,Costa d'en Blanes sud (11190),,39.537533,2.566412,12436,https://www.tib.org/web/ctm/parades/-/parada/11190,,,,
37716,36099,Pont d'Inca - Son Bonet (36099),,39.599895,2.696642,12379,https://www.tib.org/web/ctm/parades/-/parada/36099,,,,
37717,36100,Cas Miot (36100),,39.607174,2.706181,12672,https://www.tib.org/web/ctm/parades/-/parada/36100,,,,
1877,59014,Roada (59014),,39.318977,2.996935,12652,https://www.tib.org/web/ctm/parades/-/parada/59014,,,,
1878,11191,Av. Badia de Palma 1 (11191),,39.501183,2.533575,12441,https://www.tib.org/web/ctm/parades/-/parada/11191,,,,
37718,36101,Cas Capità 2 (36101),,39.60436,2.708757,12672,https://www.tib.org/web/ctm/parades/-/parada/36101,,,,
1879,11192,Av. Badia de Palma 2 (11192),,39.501286,2.533767,12441,https://www.tib.org/web/ctm/parades/-/parada/11192,,,,
37719,36102,Cas Capità 1 (36102),,39.606747,2.707078,12672,https://www.tib.org/web/ctm/parades/-/parada/36102,,,,
37720,53022,Santa Eugènia 3 (53022),,39.62499,2.837395,12490,https://www.tib.org/web/ctm/parades/-/parada/53022,,,,
1880,60006,IES Sineu 1 (60006),,39.639084,3.004648,12396,https://www.tib.org/web/ctm/parades/-/parada/60006,,,,
37721,56002,IES Santa Maria (56002),,39.642376,2.779091,12387,https://www.tib.org/web/ctm/parades/-/parada/56002,,,,
1881,60007,IES Sineu 2 (60007),,39.639324,3.004618,12396,https://www.tib.org/web/ctm/parades/-/parada/60007,,,,
37722,56003,Aparcament Son Gulla (56003),,39.64585,2.776704,12387,https://www.tib.org/web/ctm/parades/-/parada/56003,,,,
37723,53014,Ses Coves 1 (53014),,39.63095,2.82622,12674,https://www.tib.org/web/ctm/parades/-/parada/53014,,,,
37724,53009,Ses Coves 2 (53009),,39.63084,2.82621,12674,https://www.tib.org/web/ctm/parades/-/parada/53009,,,,
37725,53011,Can Xaca 2 (53011),,39.63295,2.821019,12674,https://www.tib.org/web/ctm/parades/-/parada/53011,,,,
1886,61032,Son Angelats 2 (61032),,39.77152,2.706126,12505,https://www.tib.org/web/ctm/parades/-/parada/61032,,,,
37726,53010,Can Xaca 1 (53010),,39.633057,2.821074,12674,https://www.tib.org/web/ctm/parades/-/parada/53010,,,,
1887,61033,Son Angelats 1 (61033),,39.771446,2.705949,12505,https://www.tib.org/web/ctm/parades/-/parada/61033,,,,
37727,22031,Mossèn Bartomeu Barceló 1 (22031),,39.47554,3.143574,12424,https://www.tib.org/web/ctm/parades/-/parada/22031,,,,
37728,22032,Mossèn Bartomeu Barceló 2 (22032),,39.475555,3.143997,12424,https://www.tib.org/web/ctm/parades/-/parada/22032,,,,
1889,11193,Platges d'Illetes 1 (11193),,39.53941,2.588896,163,https://www.tib.org/web/ctm/parades/-/parada/11193,,,,
1890,11194,Platges d'Illetes 2 (11194),,39.538708,2.590872,163,https://www.tib.org/web/ctm/parades/-/parada/11194,,,,
37730,25004,Fornalutx (25004),,39.784122,2.742967,12503,https://www.tib.org/web/ctm/parades/-/parada/25004,,,,
1891,11195,Illetes 1 (11195),,39.543472,2.593697,163,https://www.tib.org/web/ctm/parades/-/parada/11195,,,,
1892,11196,Illetes 2 (11196),,39.54186,2.59377,163,https://www.tib.org/web/ctm/parades/-/parada/11196,,,,
1893,310,ParcBit Estació (310),,39.63434,2.636338,166,https://www.tib.org/web/ctm/parades/-/parada/310,,,,
1895,33089,Estació de tren 2 (33089),,39.570465,3.203574,12398,https://www.tib.org/web/ctm/parades/-/parada/33089,,,,
1896,33090,Estació de tren 3 (33090),,39.570175,3.203745,12398,https://www.tib.org/web/ctm/parades/-/parada/33090,,,,
1897,11197,IES Bendinat (11197),,39.53972,2.585982,12434,https://www.tib.org/web/ctm/parades/-/parada/11197,,,,
971,40015,Cala Major 1 (40015),,39.55335,2.604933,12374,https://www.tib.org/web/ctm/parades/-/parada/40015,,,,
972,40014,Cala Major 2 (40014),,39.5533,2.604802,12374,https://www.tib.org/web/ctm/parades/-/parada/40014,,,,
975,40018,Port Calanova 2 (40018),,39.55041,2.598635,12375,https://www.tib.org/web/ctm/parades/-/parada/40018,,,,
976,40019,Port Calanova 1 (40019),,39.55033,2.598791,12375,https://www.tib.org/web/ctm/parades/-/parada/40019,,,,
977,40021,Instituts 1 (40021),,39.576096,2.645026,12376,https://www.tib.org/web/ctm/parades/-/parada/40021,,,,
978,40022,Instituts 2 (40022),,39.57644,2.645585,12376,https://www.tib.org/web/ctm/parades/-/parada/40022,,,,
979,40026,Son Dureta 2 (40026),,39.571976,2.622214,12376,https://www.tib.org/web/ctm/parades/-/parada/40026,,,,
980,40027,Son Dureta 1 (40027),,39.571762,2.622714,12376,https://www.tib.org/web/ctm/parades/-/parada/40027,,,,
981,40028,Andrea Doria 1 (40028),,39.570454,2.631944,12376,https://www.tib.org/web/ctm/parades/-/parada/40028,,,,
982,40029,Plaça Progrés 2 (40029),,39.572166,2.63629,12376,https://www.tib.org/web/ctm/parades/-/parada/40029,,,,
983,40030,Plaça Progrés 1 (40030),,39.572117,2.636585,12376,https://www.tib.org/web/ctm/parades/-/parada/40030,,,,

985,40072,Andrea Doria 2 (40072),,39.570496,2.632618,12376,https://www.tib.org/web/ctm/parades/-/parada/40072,,,,
1002,204,Son Fuster Estació (204),,39.59031,2.674708,12376,https://www.tib.org/web/ctm/parades/-/parada/204,,,,
1004,205,Verge de Lluc Estació (205),,39.596725,2.686405,12376,https://www.tib.org/web/ctm/parades/-/parada/205,,,,
1005,206,Pont d'Inca Estació (206),,39.598095,2.691736,12379,https://www.tib.org/web/ctm/parades/-/parada/206,,,,
1006,207,Pont d'Inca Nou Estació (207),,39.604477,2.701453,12380,https://www.tib.org/web/ctm/parades/-/parada/207,,,,
1007,208,Polígon Marratxí Estació (208),,39.615536,2.716893,12381,https://www.tib.org/web/ctm/parades/-/parada/208,,,,
1008,209,Marratxí Estació (209),,39.62573,2.725684,12382,https://www.tib.org/web/ctm/parades/-/parada/209,,,,
1009,210,Es Caülls Estació (210),,39.632,2.736499,12383,https://www.tib.org/web/ctm/parades/-/parada/210,,,,
1010,211,Santa Maria Estació (211),,39.653206,2.774241,12387,https://www.tib.org/web/ctm/parades/-/parada/211,,,,
1011,212,Consell - Alaró Estació (212),,39.677387,2.808254,12388,https://www.tib.org/web/ctm/parades/-/parada/212,,,,
1012,213,Binissalem Estació (213),,39.69263,2.841443,12389,https://www.tib.org/web/ctm/parades/-/parada/213,,,,
1013,214,Lloseta Estació (214),,39.71623,2.869052,12390,https://www.tib.org/web/ctm/parades/-/parada/214,,,,
1014,215,Inca Estació (215),,39.71811,2.905883,12391,https://www.tib.org/web/ctm/parades/-/parada/215,,,,
1015,216,Enllaç Estació (216),,39.690754,2.951291,12392,https://www.tib.org/web/ctm/parades/-/parada/216,,,,
1016,217,Llubí Estació (217),,39.711308,2.993881,12393,https://www.tib.org/web/ctm/parades/-/parada/217,,,,
1017,218,Muro Estació (218),,39.734325,3.032301,12394,https://www.tib.org/web/ctm/parades/-/parada/218,,,,
1018,219,Sa Pobla Estació (219),,39.7643,3.02936,12395,https://www.tib.org/web/ctm/parades/-/parada/219,,,,
1019,220,Sineu Estació (220),,39.643585,3.014528,12396,https://www.tib.org/web/ctm/parades/-/parada/220,,,,
1020,222,Petra Estació (222),,39.617798,3.110147,12397,https://www.tib.org/web/ctm/parades/-/parada/222,,,,
1021,223,Manacor Estació (223),,39.570545,3.202879,12398,https://www.tib.org/web/ctm/parades/-/parada/223,,,,
1022,224,Son Cladera - es Vivero Estació (224),,39.59363,2.679425,12376,https://www.tib.org/web/ctm/parades/-/parada/224,,,,

40036_STATION,40036,Estació Intermodal,,39.57638,2.65419,12376,https://www.tib.org/web/ctm/parades/-/parada/40036,,1,,1
984,40036,Estació Intermodal (bus),,39.577045,2.656165,12376,https://www.tib.org/web/ctm/parades/-/parada/40036,40036_STATION,0,3,1
1023,301,Estació Intermodal (tren i metro),,39.576885,2.655008,12376,https://www.tib.org/web/ctm/parades/-/parada/301,40036_STATION,0,3,1
40036_ELEVATOR_1_ENTRANCE,,Ascensor Plaça Espanya planta 0,Acceso por Ascensor Plaça Espanya,39.576387,2.654432,,,40036_STATION,2,1,1
40036_ELEVATOR_1_L-1,,Ascensor Plaça Espanya planta -1,,39.576387,2.654432,,,40036_STATION,3,2,1
40036_STAIR_1_ENTRANCE,,Escala exterior planta 0,Acceso por escaleras,39.576337,2.654077,,,40036_STATION,2,1,2
40036_STAIR_1_L-1,,Escala exterior planta -1,,39.576459,2.65425,,,40036_STATION,3,2,2
40036_FARE_GATE_1_L-1,,Tornos tarifarios,,39.5765,2.6545,,,40036_STATION,3,2,1
40036_ELEVATOR_2_L-1,,Ascensor tren-metro planta -1,,39.576463,2.654623,,,40036_STATION,3,2,1
40036_ELEVATOR_2_L-2,,Ascensor tren-metro planta -2,,39.576463,2.654623,,,40036_STATION,3,3,1
40036_STAIR_2_L-1,,Escala tren-metro planta -1,,39.576553,2.65452,,,40036_STATION,3,2,2
40036_STAIR_2_L-2,,Escala tren-metro planta -2,,39.576676,2.654726,,,40036_STATION,3,3,2
40036_STAIR_3_L-1,,Escala bus planta -1,,39.576536,2.655247,,,40036_STATION,3,2,2
40036_STAIR_3_L-2,,Escala bus planta -2,,39.576626,2.655396,,,40036_STATION,3,3,2
40036_ELEVATOR_3_ENTRANCE,,Ascensor Parc sud planta 0,Acceso por ascensor 3,39.576426,2.655412,,,40036_STATION,2,1,1
40036_ELEVATOR_3_L-1,,Ascensor Parc sud planta -1,,39.576426,2.655412,,,40036_STATION,3,2,1
40036_ELEVATOR_3_L-2,,Ascensor Parc sud planta -2,,39.576426,2.655412,,,40036_STATION,3,3,1
40036_ELEVATOR_5_ENTRANCE,,Ascensor Parc nord planta 0,Acceso por ascensor 5,39.577464,2.656912,,,40036_STATION,2,1,1
40036_ELEVATOR_5_L-2,,Ascensor Parc nord planta -2,,39.577464,2.656912,,,40036_STATION,3,3,1
